{"resourceType":"Location","id":"81c75a54-2b95-3fdf-9327-b74df8630869","meta":{"profile":["http://hl7.org/fhir/us/core/StructureDefinition/us-core-location"]},"identifier":[{"system":"https://github.com/synthetichealth/synthea","value":"81c75a54-2b95-3fdf-9327-b74df8630869"}],"status":"active","name":"Fitchburg Outpatient Clinic","telecom":[{"system":"phone","value":"978-342-9781 Or 978-342-9781"}],"address":{"line":["881 Main Street"],"city":"Fitchburg","state":"MA","postalCode":"01420","country":"US"},"position":{"longitude":-71.80521,"latitude":42.586487},"managingOrganization":{"identifier":{"system":"https://github.com/synthetichealth/synthea","value":"74ab949d-17ac-3309-83a0-13b4405c66aa"},"display":"Fitchburg Outpatient Clinic"}}
{"resourceType":"Location","id":"b5dd253c-eb28-30cb-bd7e-f4fc56cae70e","meta":{"profile":["http://hl7.org/fhir/us/core/StructureDefinition/us-core-location"]},"identifier":[{"system":"https://github.com/synthetichealth/synthea","value":"b5dd253c-eb28-30cb-bd7e-f4fc56cae70e"}],"status":"active","name":"BAYADA HOME HEALTH CARE, INC","telecom":[{"system":"phone","value":"6174721333"}],"address":{"line":["127 CAMBRIDGE STREET, SUTIE #2B"],"city":"BURLINGTON","state":"MA","postalCode":"018033735","country":"US"},"position":{"longitude":-71.19559351572005,"latitude":42.50188325},"managingOrganization":{"identifier":{"system":"https://github.com/synthetichealth/synthea","value":"1ddd51d1-7297-3c3b-bad5-98aecd5e4a79"},"display":"BAYADA HOME HEALTH CARE, INC"}}
{"resourceType":"Location","id":"d6015d4c-49d9-3d53-bb05-22dc25fb2b24","meta":{"profile":["http://hl7.org/fhir/us/core/StructureDefinition/us-core-location"]},"identifier":[{"system":"https://github.com/synthetichealth/synthea","value":"d6015d4c-49d9-3d53-bb05-22dc25fb2b24"}],"status":"active","name":"CHILD & FAMILY SERVICES, INC.","telecom":[{"system":"phone","value":"5089968572"}],"address":{"line":["1061 PLEASANT ST"],"city":"NEW BEDFORD","state":"MA","postalCode":"027406728","country":"US"},"position":{"longitude":-70.92865004309593,"latitude":41.64280275},"managingOrganization":{"identifier":{"system":"https://github.com/synthetichealth/synthea","value":"dd9914b0-9491-3330-a890-d34e95e497ea"},"display":"CHILD & FAMILY SERVICES, INC."}}
{"resourceType":"Location","id":"e1b75bf5-d1a1-36de-a7ed-109c0970bbce","meta":{"profile":["http://hl7.org/fhir/us/core/StructureDefinition/us-core-location"]},"identifier":[{"system":"https://github.com/synthetichealth/synthea","value":"e1b75bf5-d1a1-36de-a7ed-109c0970bbce"}],"status":"active","name":"NEW ENGLAND FAMILY HEALTH LLC","telecom":[{"system":"phone","value":"5082150015"}],"address":{"line":["463 WORCESTER RD"],"city":"FRAMINGHAM","state":"MA","postalCode":"017015354","country":"US"},"position":{"longitude":-71.4413097,"latitude":42.3095704},"managingOrganization":{"identifier":{"system":"https://github.com/synthetichealth/synthea","value":"ea153d0a-9ccc-3769-9a25-934b417071b7"},"display":"NEW ENGLAND FAMILY HEALTH LLC"}}
{"resourceType":"Location","id":"a70261c0-cd16-3635-9d96-8492e2a0be87","meta":{"profile":["http://hl7.org/fhir/us/core/StructureDefinition/us-core-location"]},"identifier":[{"system":"https://github.com/synthetichealth/synthea","value":"a70261c0-cd16-3635-9d96-8492e2a0be87"}],"status":"active","name":"LEONARD FLORENCE CENTER FOR LIVING","telecom":[{"system":"phone","value":"6178870001"}],"address":{"line":["165 CAPTAIN'S ROW"],"city":"CHELSEA","state":"MA","postalCode":"021504019","country":"US"},"position":{"longitude":-71.0328284,"latitude":42.3917638},"managingOrganization":{"identifier":{"system":"https://github.com/synthetichealth/synthea","value":"13161e5b-02d2-3d19-8b48-26ef0becfc83"},"display":"LEONARD FLORENCE CENTER FOR LIVING"}}
{"resourceType":"Location","id":"c418ed01-f5fa-352b-bf19-309eaab245da","meta":{"profile":["http://hl7.org/fhir/us/core/StructureDefinition/us-core-location"]},"identifier":[{"system":"https://github.com/synthetichealth/synthea","value":"c418ed01-f5fa-352b-bf19-309eaab245da"}],"status":"active","name":"FALL RIVER JEWISH HOME, INC","telecom":[{"system":"phone","value":"5086796172"}],"address":{"line":["538 ROBESON STREET"],"city":"FALL RIVER","state":"MA","postalCode":"027205496","country":"US"},"position":{"longitude":-71.1432141111111,"latitude":41.707225},"managingOrganization":{"identifier":{"system":"https://github.com/synthetichealth/synthea","value":"86bbc3aa-e927-3d56-9d77-ab701b4b2926"},"display":"FALL RIVER JEWISH HOME, INC"}}
{"resourceType":"Location","id":"2ac42b29-8d6a-3319-a57a-c9b68dc54c0d","meta":{"profile":["http://hl7.org/fhir/us/core/StructureDefinition/us-core-location"]},"identifier":[{"system":"https://github.com/synthetichealth/synthea","value":"2ac42b29-8d6a-3319-a57a-c9b68dc54c0d"}],"status":"active","name":"AP MEDICAL LLC","telecom":[{"system":"phone","value":"5089715190"}],"address":{"line":["909 SUMNER ST"],"city":"DARTMOUTH","state":"MA","postalCode":"027473826","country":"US"},"position":{"longitude":-70.9879928,"latitude":41.6332267},"managingOrganization":{"identifier":{"system":"https://github.com/synthetichealth/synthea","value":"aade280a-3b90-3e48-9648-91109a964a63"},"display":"AP MEDICAL LLC"}}
{"resourceType":"Location","id":"f5febcc2-737b-39f5-bd3e-5aa80ce16053","meta":{"profile":["http://hl7.org/fhir/us/core/StructureDefinition/us-core-location"]},"identifier":[{"system":"https://github.com/synthetichealth/synthea","value":"f5febcc2-737b-39f5-bd3e-5aa80ce16053"}],"status":"active","name":"WESTON PRIMARY CARE, PC","telecom":[{"system":"phone","value":"7818910906"}],"address":{"line":["56 COLPITTS RD"],"city":"WESTON","state":"MA","postalCode":"024931568","country":"US"},"position":{"longitude":-71.3036759,"latitude":42.36610065},"managingOrganization":{"identifier":{"system":"https://github.com/synthetichealth/synthea","value":"34f0b10a-5e29-31de-a75e-e0bb03c0c0d4"},"display":"WESTON PRIMARY CARE, PC"}}
{"resourceType":"Location","id":"0a6d5a96-47be-30f7-b20c-c49f38fde2a1","meta":{"profile":["http://hl7.org/fhir/us/core/StructureDefinition/us-core-location"]},"identifier":[{"system":"https://github.com/synthetichealth/synthea","value":"0a6d5a96-47be-30f7-b20c-c49f38fde2a1"}],"status":"active","name":"COOLEY DICKINSON HOSPITAL INC","telecom":[{"system":"phone","value":"4135822000"}],"address":{"line":["30 LOCUST ST"],"city":"NORTHAMPTON","state":"MA","postalCode":"010602052","country":"US"},"position":{"longitude":-72.65330802608176,"latitude":42.33032115},"managingOrganization":{"identifier":{"system":"https://github.com/synthetichealth/synthea","value":"b8421363-9807-3b16-a146-95336eea5cfb"},"display":"COOLEY DICKINSON HOSPITAL INC"}}
{"resourceType":"Location","id":"d508eccb-11c5-33b6-b098-28ff87c51539","meta":{"profile":["http://hl7.org/fhir/us/core/StructureDefinition/us-core-location"]},"identifier":[{"system":"https://github.com/synthetichealth/synthea","value":"d508eccb-11c5-33b6-b098-28ff87c51539"}],"status":"active","name":"HILLTOWN COMMUNITY HEALTH CENTERS INC","telecom":[{"system":"phone","value":"4136670142"}],"address":{"line":["12 LITTLEVILLE RD"],"city":"HUNTINGTON","state":"MA","postalCode":"010509761","country":"US"},"position":{"longitude":-72.87133712317558,"latitude":42.257603957277915},"managingOrganization":{"identifier":{"system":"https://github.com/synthetichealth/synthea","value":"752c7570-1637-36cf-8b74-03ea3acfa98c"},"display":"HILLTOWN COMMUNITY HEALTH CENTERS INC"}}
{"resourceType":"Location","id":"a0a41aeb-e391-342e-87eb-041a771365fa","meta":{"profile":["http://hl7.org/fhir/us/core/StructureDefinition/us-core-location"]},"identifier":[{"system":"https://github.com/synthetichealth/synthea","value":"a0a41aeb-e391-342e-87eb-041a771365fa"}],"status":"active","name":"ALLIANCE HEALTH AT MARIE ESTHER","telecom":[{"system":"phone","value":"5084853791"}],"address":{"line":["720 BOSTON POST ROAD"],"city":"MARLBOROUGH","state":"MA","postalCode":"017523766","country":"US"},"position":{"longitude":-71.47654,"latitude":42.355106},"managingOrganization":{"identifier":{"system":"https://github.com/synthetichealth/synthea","value":"65f0254a-73a3-3b06-bced-54d511445535"},"display":"ALLIANCE HEALTH AT MARIE ESTHER"}}
{"resourceType":"Location","id":"8fd32527-dd9d-3bef-8c0a-9c62708a9d72","meta":{"profile":["http://hl7.org/fhir/us/core/StructureDefinition/us-core-location"]},"identifier":[{"system":"https://github.com/synthetichealth/synthea","value":"8fd32527-dd9d-3bef-8c0a-9c62708a9d72"}],"status":"active","name":"New Bedford Outpatient Clinic","telecom":[{"system":"phone","value":"508-994-0217"}],"address":{"line":["175 Elm Street"],"city":"New Bedford","state":"MA","postalCode":"02740","country":"US"},"position":{"longitude":-70.92991,"latitude":41.635937},"managingOrganization":{"identifier":{"system":"https://github.com/synthetichealth/synthea","value":"d6600c68-8a26-3a88-86e2-99517365c10a"},"display":"New Bedford Outpatient Clinic"}}
{"resourceType":"Location","id":"d9dfd791-2798-33ee-b149-c9bf3b11c8cd","meta":{"profile":["http://hl7.org/fhir/us/core/StructureDefinition/us-core-location"]},"identifier":[{"system":"https://github.com/synthetichealth/synthea","value":"d9dfd791-2798-33ee-b149-c9bf3b11c8cd"}],"status":"active","name":"HATHAWAY MANOR EXTENDED CARE","telecom":[{"system":"phone","value":"5089966763"}],"address":{"line":["863 HATHAWAY ROAD"],"city":"NEW BEDFORD","state":"MA","postalCode":"027401916","country":"US"},"position":{"longitude":-70.9669902070805,"latitude":41.6512968},"managingOrganization":{"identifier":{"system":"https://github.com/synthetichealth/synthea","value":"d140ed3f-2696-3e78-bd77-1c959ec4fc4d"},"display":"HATHAWAY MANOR EXTENDED CARE"}}
{"resourceType":"Location","id":"33d41b6a-45f5-315d-8b38-1531dcd7b0a3","meta":{"profile":["http://hl7.org/fhir/us/core/StructureDefinition/us-core-location"]},"identifier":[{"system":"https://github.com/synthetichealth/synthea","value":"33d41b6a-45f5-315d-8b38-1531dcd7b0a3"}],"status":"active","name":"STURDY MEMORIAL HOSPITAL INC","telecom":[{"system":"phone","value":"5082368110"}],"address":{"line":["211 PARK ST"],"city":"ATTLEBORO","state":"MA","postalCode":"027033143","country":"US"},"position":{"longitude":-71.2752081695297,"latitude":41.9419187},"managingOrganization":{"identifier":{"system":"https://github.com/synthetichealth/synthea","value":"63cb4d95-04a9-3a35-b5d9-f89e0377a48d"},"display":"STURDY MEMORIAL HOSPITAL INC"}}
{"resourceType":"Location","id":"83a16025-8bd6-3a60-8bd2-5cd9ac3fe799","meta":{"profile":["http://hl7.org/fhir/us/core/StructureDefinition/us-core-location"]},"identifier":[{"system":"https://github.com/synthetichealth/synthea","value":"83a16025-8bd6-3a60-8bd2-5cd9ac3fe799"}],"status":"active","name":"4499 ACUSHNET AVENUE OPERATING COMPANY, LLC","telecom":[{"system":"phone","value":"5089956900"}],"address":{"line":["4499 ACUSHNET AVE"],"city":"NEW BEDFORD","state":"MA","postalCode":"027454707","country":"US"},"position":{"longitude":-70.9450945705336,"latitude":41.74026055},"managingOrganization":{"identifier":{"system":"https://github.com/synthetichealth/synthea","value":"dd280187-8662-3732-af81-595d10572911"},"display":"4499 ACUSHNET AVENUE OPERATING COMPANY, LLC"}}
{"resourceType":"Location","id":"301da097-aa4a-3b87-9f6f-b46c56f0038a","meta":{"profile":["http://hl7.org/fhir/us/core/StructureDefinition/us-core-location"]},"identifier":[{"system":"https://github.com/synthetichealth/synthea","value":"301da097-aa4a-3b87-9f6f-b46c56f0038a"}],"status":"active","name":"OAKS, THE","telecom":[{"system":"phone","value":"5089987807"}],"address":{"line":["4525 ACUSHNET AVENUE"],"city":"NEW BEDFORD","state":"MA","postalCode":"027454727","country":"US"},"position":{"longitude":-70.94731021257817,"latitude":41.74080975},"managingOrganization":{"identifier":{"system":"https://github.com/synthetichealth/synthea","value":"4ffc4e4b-9d8d-3c30-ad84-fc9a7209da94"},"display":"OAKS, THE"}}
{"resourceType":"Location","id":"fde1651a-f8c8-3368-9965-bdafb0249d73","meta":{"profile":["http://hl7.org/fhir/us/core/StructureDefinition/us-core-location"]},"identifier":[{"system":"https://github.com/synthetichealth/synthea","value":"fde1651a-f8c8-3368-9965-bdafb0249d73"}],"status":"active","name":"MARLBOROUGH HOSPITAL CORP","telecom":[{"system":"phone","value":"5084815000"}],"address":{"line":["157 UNION ST"],"city":"SOUTHBOROUGH","state":"MA","postalCode":"017721215","country":"US"},"position":{"longitude":-71.5245087,"latitude":42.3056501},"managingOrganization":{"identifier":{"system":"https://github.com/synthetichealth/synthea","value":"352f2e3b-0708-3eb4-9f7e-e73a685bf379"},"display":"MARLBOROUGH HOSPITAL CORP"}}
{"resourceType":"Location","id":"4c6581a0-d7c7-3a97-9fe7-b9e1ec650d69","meta":{"profile":["http://hl7.org/fhir/us/core/StructureDefinition/us-core-location"]},"identifier":[{"system":"https://github.com/synthetichealth/synthea","value":"4c6581a0-d7c7-3a97-9fe7-b9e1ec650d69"}],"status":"active","name":"RISE ABOVE WELLNESS HEALTH SERVICES LLC","telecom":[{"system":"phone","value":"8572473180"}],"address":{"line":["52 CARPENTER ST"],"city":"ATTLEBORO","state":"MA","postalCode":"027032472","country":"US"},"position":{"longitude":-71.27996091755344,"latitude":41.9369576},"managingOrganization":{"identifier":{"system":"https://github.com/synthetichealth/synthea","value":"edd58f69-ad5f-346b-b1f9-530ccdc895f6"},"display":"RISE ABOVE WELLNESS HEALTH SERVICES LLC"}}
{"resourceType":"Location","id":"d5ca5620-fc36-3bce-a03f-431ba095c617","meta":{"profile":["http://hl7.org/fhir/us/core/StructureDefinition/us-core-location"]},"identifier":[{"system":"https://github.com/synthetichealth/synthea","value":"d5ca5620-fc36-3bce-a03f-431ba095c617"}],"status":"active","name":"WOONSOCKET URGENT CARE PC","telecom":[{"system":"phone","value":"5083184466"}],"address":{"line":["1 WRENTHAM ST"],"city":"BELLINGHAM","state":"MA","postalCode":"020192532","country":"US"},"position":{"longitude":-71.48945118224057,"latitude":42.025037350000005},"managingOrganization":{"identifier":{"system":"https://github.com/synthetichealth/synthea","value":"7b7ce654-a413-37d1-9d34-97240c0ac580"},"display":"WOONSOCKET URGENT CARE PC"}}
{"resourceType":"Location","id":"37062c80-1ebb-3ece-ab5e-af0bc290c441","meta":{"profile":["http://hl7.org/fhir/us/core/StructureDefinition/us-core-location"]},"identifier":[{"system":"https://github.com/synthetichealth/synthea","value":"37062c80-1ebb-3ece-ab5e-af0bc290c441"}],"status":"active","name":"TEWKSBURY HOSPITAL","telecom":[{"system":"phone","value":"9788517321"}],"address":{"line":["365 EAST ST"],"city":"TEWKSBURY","state":"MA","postalCode":"018761950","country":"US"},"position":{"longitude":-71.2180803,"latitude":42.6069472},"managingOrganization":{"identifier":{"system":"https://github.com/synthetichealth/synthea","value":"2836d9ac-c6a6-39d1-8f13-fdf0fc8928f4"},"display":"TEWKSBURY HOSPITAL"}}
{"resourceType":"Location","id":"6407d37d-9fd9-3612-8f9d-f3117d3b72f4","meta":{"profile":["http://hl7.org/fhir/us/core/StructureDefinition/us-core-location"]},"identifier":[{"system":"https://github.com/synthetichealth/synthea","value":"6407d37d-9fd9-3612-8f9d-f3117d3b72f4"}],"status":"active","name":"DR JOHN C CORRIGAN MENTAL HEALTH CENTER","telecom":[{"system":"phone","value":"5082357600"}],"address":{"line":["49 HILLSIDE STREET"],"city":"FALL RIVER","state":"MA","postalCode":"027205211","country":"US"},"position":{"longitude":-71.14593659462452,"latitude":41.707406500000005},"managingOrganization":{"identifier":{"system":"https://github.com/synthetichealth/synthea","value":"578b56de-fe9c-32e1-aea4-876f8bc01e9c"},"display":"DR JOHN C CORRIGAN MENTAL HEALTH CENTER"}}
{"resourceType":"Location","id":"0e770552-19ec-3370-bd5d-1dd7e0aba0f1","meta":{"profile":["http://hl7.org/fhir/us/core/StructureDefinition/us-core-location"]},"identifier":[{"system":"https://github.com/synthetichealth/synthea","value":"0e770552-19ec-3370-bd5d-1dd7e0aba0f1"}],"status":"active","name":"LIFE CARE CENTER OF ATTLEBORO","telecom":[{"system":"phone","value":"5082224182"}],"address":{"line":["969 PARK STREET"],"city":"ATTLEBORO","state":"MA","postalCode":"027035115","country":"US"},"position":{"longitude":-71.2611303145582,"latitude":41.9266899},"managingOrganization":{"identifier":{"system":"https://github.com/synthetichealth/synthea","value":"accb8cdd-6560-3fef-b0a6-f12c3295026a"},"display":"LIFE CARE CENTER OF ATTLEBORO"}}
{"resourceType":"Location","id":"0de30cb4-0dd8-357b-a7d3-30b7072c7c88","meta":{"profile":["http://hl7.org/fhir/us/core/StructureDefinition/us-core-location"]},"identifier":[{"system":"https://github.com/synthetichealth/synthea","value":"0de30cb4-0dd8-357b-a7d3-30b7072c7c88"}],"status":"active","name":"FAMILY SERVICE ASSOCIATION OF GREATER FALL RIVER INC","telecom":[{"system":"phone","value":"5086787542"}],"address":{"line":["151 ROCK ST"],"city":"FALL RIVER","state":"MA","postalCode":"027203201","country":"US"},"position":{"longitude":-71.15259151299796,"latitude":41.70365955},"managingOrganization":{"identifier":{"system":"https://github.com/synthetichealth/synthea","value":"c5d5a544-0277-342f-8422-d30848a82438"},"display":"FAMILY SERVICE ASSOCIATION OF GREATER FALL RIVER INC"}}
{"resourceType":"Location","id":"5c001c04-11e5-3efb-aa44-b7214d7b87f5","meta":{"profile":["http://hl7.org/fhir/us/core/StructureDefinition/us-core-location"]},"identifier":[{"system":"https://github.com/synthetichealth/synthea","value":"5c001c04-11e5-3efb-aa44-b7214d7b87f5"}],"status":"active","name":"BARRINGTON URGENT CARE PC","telecom":[{"system":"phone","value":"4014337550"}],"address":{"line":["381 WICKENDEN ST"],"city":"ATTLEBORO","state":"MA","postalCode":"027032247","country":"US"},"position":{"longitude":-71.2806515,"latitude":41.9438129},"managingOrganization":{"identifier":{"system":"https://github.com/synthetichealth/synthea","value":"1853aeef-5897-326a-80d6-aa4b0459eb6d"},"display":"BARRINGTON URGENT CARE PC"}}
{"resourceType":"Location","id":"bd1f7dfc-41c0-35bd-b355-190e670ec663","meta":{"profile":["http://hl7.org/fhir/us/core/StructureDefinition/us-core-location"]},"identifier":[{"system":"https://github.com/synthetichealth/synthea","value":"bd1f7dfc-41c0-35bd-b355-190e670ec663"}],"status":"active","name":"ST PATRICK'S MANOR","telecom":[{"system":"phone","value":"5088798000"}],"address":{"line":["863 CENTRAL STREET"],"city":"FRAMINGHAM","state":"MA","postalCode":"017014813","country":"US"},"position":{"longitude":-71.42846215724606,"latitude":42.30758060362541},"managingOrganization":{"identifier":{"system":"https://github.com/synthetichealth/synthea","value":"7f32dd7d-5c35-3ddb-839b-8fbbb930d412"},"display":"ST PATRICK'S MANOR"}}
{"resourceType":"Location","id":"ecdc5c72-4653-3d75-90c7-ae711c69d0c6","meta":{"profile":["http://hl7.org/fhir/us/core/StructureDefinition/us-core-location"]},"identifier":[{"system":"https://github.com/synthetichealth/synthea","value":"ecdc5c72-4653-3d75-90c7-ae711c69d0c6"}],"status":"active","name":"NEW BEDFORD INTERNAL MEDICINE & GERIATRICS, LLC","telecom":[{"system":"phone","value":"5089845671"}],"address":{"line":["726 COUNTY ST"],"city":"NORTH DARTMOUTH","state":"MA","postalCode":"027473603","country":"US"},"position":{"longitude":-70.9703171,"latitude":41.6389926},"managingOrganization":{"identifier":{"system":"https://github.com/synthetichealth/synthea","value":"3f12ebb4-e03c-3453-88d2-4fc9682383df"},"display":"NEW BEDFORD INTERNAL MEDICINE & GERIATRICS, LLC"}}
{"resourceType":"Location","id":"459daea7-3538-3a16-8020-8f2a96313ed9","meta":{"profile":["http://hl7.org/fhir/us/core/StructureDefinition/us-core-location"]},"identifier":[{"system":"https://github.com/synthetichealth/synthea","value":"459daea7-3538-3a16-8020-8f2a96313ed9"}],"status":"active","name":"NORTHEAST BEHAVIORAL HEALTH LLC","telecom":[{"system":"phone","value":"5082079800"}],"address":{"line":["581 FAUNCE CORNER RD"],"city":"DARTMOUTH","state":"MA","postalCode":"027471242","country":"US"},"position":{"longitude":-70.98788528176077,"latitude":41.676111381167445},"managingOrganization":{"identifier":{"system":"https://github.com/synthetichealth/synthea","value":"e92dad8b-f485-315a-8fc4-1d7adfdc9c00"},"display":"NORTHEAST BEHAVIORAL HEALTH LLC"}}
{"resourceType":"Location","id":"1ee8e7a8-0749-3cd4-a7aa-be177e3b5639","meta":{"profile":["http://hl7.org/fhir/us/core/StructureDefinition/us-core-location"]},"identifier":[{"system":"https://github.com/synthetichealth/synthea","value":"1ee8e7a8-0749-3cd4-a7aa-be177e3b5639"}],"status":"active","name":"MILFORD REGIONAL MEDICAL CENTER","telecom":[{"system":"phone","value":"5084731190"}],"address":{"line":["14 PROSPECT STREET"],"city":"UPTON","state":"MA","postalCode":"015681431","country":"US"},"position":{"longitude":-71.59409308099494,"latitude":42.1700209025178},"managingOrganization":{"identifier":{"system":"https://github.com/synthetichealth/synthea","value":"845fbd9b-2d1c-39a8-8261-28ae40e4fab2"},"display":"MILFORD REGIONAL MEDICAL CENTER"}}
{"resourceType":"Location","id":"1cf1e40b-4ebd-3208-ae22-6a46945b6f5a","meta":{"profile":["http://hl7.org/fhir/us/core/StructureDefinition/us-core-location"]},"identifier":[{"system":"https://github.com/synthetichealth/synthea","value":"1cf1e40b-4ebd-3208-ae22-6a46945b6f5a"}],"status":"active","name":"CLARITY HEALTH & WELLNESS LLC","telecom":[{"system":"phone","value":"7812652572"}],"address":{"line":["131 CAMBRIDGE ST STE 1"],"city":"BURLINGTON","state":"MA","postalCode":"018033711","country":"US"},"position":{"longitude":-71.19574553661971,"latitude":42.50284395},"managingOrganization":{"identifier":{"system":"https://github.com/synthetichealth/synthea","value":"9a20d707-68e4-32c0-b2b2-2f5d5c2012cd"},"display":"CLARITY HEALTH & WELLNESS LLC"}}
{"resourceType":"Location","id":"2aac0cd7-bc3e-3ff8-9514-7fae923f1afa","meta":{"profile":["http://hl7.org/fhir/us/core/StructureDefinition/us-core-location"]},"identifier":[{"system":"https://github.com/synthetichealth/synthea","value":"2aac0cd7-bc3e-3ff8-9514-7fae923f1afa"}],"status":"active","name":"PRIMARY CARE FOR ADULTS PLLC","telecom":[{"system":"phone","value":"5084738373"}],"address":{"line":["54 HOPEDALE ST"],"city":"HOPKINTON","state":"MA","postalCode":"017481672","country":"US"},"position":{"longitude":-71.5196439,"latitude":42.2288875},"managingOrganization":{"identifier":{"system":"https://github.com/synthetichealth/synthea","value":"f90ef475-defe-363d-a926-573b38f804a2"},"display":"PRIMARY CARE FOR ADULTS PLLC"}}
{"resourceType":"Location","id":"cf117c25-4eca-3432-af54-bf059141b5ea","meta":{"profile":["http://hl7.org/fhir/us/core/StructureDefinition/us-core-location"]},"identifier":[{"system":"https://github.com/synthetichealth/synthea","value":"cf117c25-4eca-3432-af54-bf059141b5ea"}],"status":"active","name":"MASS GENERAL BRIGHAM URGENT CARE LLC","telecom":[{"system":"phone","value":"6177516205"}],"address":{"line":["1285 BEACON ST"],"city":"WOBURN","state":"MA","postalCode":"018012157","country":"US"},"position":{"longitude":-71.1684508,"latitude":42.4979478},"managingOrganization":{"identifier":{"system":"https://github.com/synthetichealth/synthea","value":"a25107f7-f4f5-36fc-98e4-f3e1b5875c91"},"display":"MASS GENERAL BRIGHAM URGENT CARE LLC"}}
{"resourceType":"Location","id":"c5abd580-26ee-37c4-a7f7-69c98a4ee69e","meta":{"profile":["http://hl7.org/fhir/us/core/StructureDefinition/us-core-location"]},"identifier":[{"system":"https://github.com/synthetichealth/synthea","value":"c5abd580-26ee-37c4-a7f7-69c98a4ee69e"}],"status":"active","name":"ENCOMPASS HEALTH BRAINTREE HOSPITAL OF BRAINTREE","telecom":[{"system":"phone","value":"7818485353"}],"address":{"line":["250 POND STREET"],"city":"FRAMINGHAM","state":"MA","postalCode":"017014592","country":"US"},"position":{"longitude":-71.4093719,"latitude":42.2838619},"managingOrganization":{"identifier":{"system":"https://github.com/synthetichealth/synthea","value":"05fcf001-ab24-3d7d-85f7-f64942d82738"},"display":"ENCOMPASS HEALTH BRAINTREE HOSPITAL OF BRAINTREE"}}
{"resourceType":"Location","id":"4a965fe6-ab2b-3740-bb4b-ce27c570e2ed","meta":{"profile":["http://hl7.org/fhir/us/core/StructureDefinition/us-core-location"]},"identifier":[{"system":"https://github.com/synthetichealth/synthea","value":"4a965fe6-ab2b-3740-bb4b-ce27c570e2ed"}],"status":"active","name":"THE SHRINERS HOSPITAL FOR CHILDREN","telecom":[{"system":"phone","value":"1617722300"}],"address":{"line":["51 BLOSSOM ST"],"city":"BOSTON","state":"MA","postalCode":"021142699","country":"US"},"position":{"longitude":-71.06643399281765,"latitude":42.36305545},"managingOrganization":{"identifier":{"system":"https://github.com/synthetichealth/synthea","value":"9adfae03-673d-365d-9052-f705098fa3e4"},"display":"THE SHRINERS HOSPITAL FOR CHILDREN"}}
{"resourceType":"Location","id":"16162e2e-393c-3162-8e09-a84a60d825c4","meta":{"profile":["http://hl7.org/fhir/us/core/StructureDefinition/us-core-location"]},"identifier":[{"system":"https://github.com/synthetichealth/synthea","value":"16162e2e-393c-3162-8e09-a84a60d825c4"}],"status":"active","name":"WHITLEY WELLNESS LLC","telecom":[{"system":"phone","value":"3254399799"}],"address":{"line":["8 SHIPWAY PL # C-8"],"city":"CHARLESTOWN","state":"MA","postalCode":"021294301","country":"US"},"position":{"longitude":-71.0619957,"latitude":42.3778749},"managingOrganization":{"identifier":{"system":"https://github.com/synthetichealth/synthea","value":"e2a8b444-9b8f-36ff-84c4-05ee98589482"},"display":"WHITLEY WELLNESS LLC"}}
{"resourceType":"Location","id":"6935f935-a700-3981-be87-1395d4a92beb","meta":{"profile":["http://hl7.org/fhir/us/core/StructureDefinition/us-core-location"]},"identifier":[{"system":"https://github.com/synthetichealth/synthea","value":"6935f935-a700-3981-be87-1395d4a92beb"}],"status":"active","name":"VNA & HOSPICE OF GREATER MILFORD","telecom":[{"system":"phone","value":"5084730862"}],"address":{"line":["37 BIRCH STREET"],"city":"MILFORD","state":"MA","postalCode":"017575501","country":"US"},"position":{"longitude":-71.48943173357203,"latitude":42.1424349},"managingOrganization":{"identifier":{"system":"https://github.com/synthetichealth/synthea","value":"f6ba791e-fe68-3596-bef4-60751db6a60e"},"display":"VNA & HOSPICE OF GREATER MILFORD"}}
{"resourceType":"Location","id":"e00c7c29-5c58-3abc-8d08-a2284890488e","meta":{"profile":["http://hl7.org/fhir/us/core/StructureDefinition/us-core-location"]},"identifier":[{"system":"https://github.com/synthetichealth/synthea","value":"e00c7c29-5c58-3abc-8d08-a2284890488e"}],"status":"active","name":"221 FITZGERALD DRIVE OPERATING COMPANY, LLC","telecom":[{"system":"phone","value":"5089964600"}],"address":{"line":["221 FITZGERALD DRIVE"],"city":"NEW BEDFORD","state":"MA","postalCode":"027453426","country":"US"},"position":{"longitude":-70.92972651619661,"latitude":41.6995448},"managingOrganization":{"identifier":{"system":"https://github.com/synthetichealth/synthea","value":"e498871e-3c3d-3ea1-a79d-4bc09679de84"},"display":"221 FITZGERALD DRIVE OPERATING COMPANY, LLC"}}
{"resourceType":"Location","id":"bb1ad573-19b8-9cd8-68fb-0e6f684df992","identifier":[{"system":"https://github.com/synthetichealth/synthea","value":"bb1ad573-19b8-9cd8-68fb-0e6f684df992"}],"status":"active","description":"Patient's Home","mode":"kind","physicalType":{"coding":[{"system":"http://terminology.hl7.org/CodeSystem/location-physical-type","code":"ho","display":"House"}]}}
