{"resourceType":"Location","id":"81c75a54-2b95-3fdf-9327-b74df8630869","meta":{"profile":["http://hl7.org/fhir/us/core/StructureDefinition/us-core-location"]},"identifier":[{"system":"https://github.com/synthetichealth/synthea","value":"81c75a54-2b95-3fdf-9327-b74df8630869"}],"status":"active","name":"Fitchburg Outpatient Clinic","telecom":[{"system":"phone","value":"978-342-9781 Or 978-342-9781"}],"address":{"line":["881 Main Street"],"city":"Fitchburg","state":"MA","postalCode":"01420","country":"US"},"position":{"longitude":-71.80521,"latitude":42.586487},"managingOrganization":{"identifier":{"system":"https://github.com/synthetichealth/synthea","value":"74ab949d-17ac-3309-83a0-13b4405c66aa"},"display":"Fitchburg Outpatient Clinic"}}
{"resourceType":"Location","id":"1da6fe51-2109-3aa8-92f1-545f17a79047","meta":{"profile":["http://hl7.org/fhir/us/core/StructureDefinition/us-core-location"]},"identifier":[{"system":"https://github.com/synthetichealth/synthea","value":"1da6fe51-2109-3aa8-92f1-545f17a79047"}],"status":"active","name":"SOUTHCOAST HOSPITALS GROUP INC","telecom":[{"system":"phone","value":"5086793131"}],"address":{"line":["363 HIGHLAND AVE"],"city":"FALL RIVER","state":"MA","postalCode":"027205246","country":"US"},"position":{"longitude":-71.1460783680883,"latitude":41.7093779},"managingOrganization":{"identifier":{"system":"https://github.com/synthetichealth/synthea","value":"77645e49-3f69-3d1d-bb93-dc65210e2fac"},"display":"SOUTHCOAST HOSPITALS GROUP INC"}}
{"resourceType":"Location","id":"2d4eaac8-c773-38c5-996b-05802ae34666","meta":{"profile":["http://hl7.org/fhir/us/core/StructureDefinition/us-core-location"]},"identifier":[{"system":"https://github.com/synthetichealth/synthea","value":"2d4eaac8-c773-38c5-996b-05802ae34666"}],"status":"active","name":"JEFFREY & SUSAN BRUDNICK CENTER FOR LIVING","telecom":[{"system":"phone","value":"7815985310"}],"address":{"line":["240 LYNNFIELD STREET"],"city":"PEABODY","state":"MA","postalCode":"019605055","country":"US"},"position":{"longitude":-70.97106354209534,"latitude":42.5141736},"managingOrganization":{"identifier":{"system":"https://github.com/synthetichealth/synthea","value":"5becf220-2978-3f33-bd38-9326947f85de"},"display":"JEFFREY & SUSAN BRUDNICK CENTER FOR LIVING"}}
{"resourceType":"Location","id":"a61711be-e3c2-30b5-a3df-db42249f0e27","meta":{"profile":["http://hl7.org/fhir/us/core/StructureDefinition/us-core-location"]},"identifier":[{"system":"https://github.com/synthetichealth/synthea","value":"a61711be-e3c2-30b5-a3df-db42249f0e27"}],"status":"active","name":"CAREWELL URGENT CARE CENTERS OF MA, PC","telecom":[{"system":"phone","value":"5086947901"}],"address":{"line":["484 RTE 134"],"city":"WORCESTER","state":"MA","postalCode":"016071728","country":"US"},"position":{"longitude":-71.8018877,"latitude":42.2625621},"managingOrganization":{"identifier":{"system":"https://github.com/synthetichealth/synthea","value":"ab701a70-a658-340e-8f69-ee196a7d40c6"},"display":"CAREWELL URGENT CARE CENTERS OF MA, PC"}}
{"resourceType":"Location","id":"047687a3-b50d-3a55-9f9e-d3fb555b4afc","meta":{"profile":["http://hl7.org/fhir/us/core/StructureDefinition/us-core-location"]},"identifier":[{"system":"https://github.com/synthetichealth/synthea","value":"047687a3-b50d-3a55-9f9e-d3fb555b4afc"}],"status":"active","name":"BOURNE FAMILY MEDICINE PC","telecom":[{"system":"phone","value":"5087430899"}],"address":{"line":["118 WATERHOUSE RD STE C"],"city":"BOURNE","state":"MA","postalCode":"025328305","country":"US"},"position":{"longitude":-70.5861571324252,"latitude":41.7281115},"managingOrganization":{"identifier":{"system":"https://github.com/synthetichealth/synthea","value":"71472d9b-aa5c-3b49-a5c3-d0eee8859015"},"display":"BOURNE FAMILY MEDICINE PC"}}
{"resourceType":"Location","id":"8e5433d0-d7db-3334-a48f-b8dcc76fe680","meta":{"profile":["http://hl7.org/fhir/us/core/StructureDefinition/us-core-location"]},"identifier":[{"system":"https://github.com/synthetichealth/synthea","value":"8e5433d0-d7db-3334-a48f-b8dcc76fe680"}],"status":"active","name":"GROVE HILL MEDICAL CENTER PC","telecom":[{"system":"phone","value":"8602246201"}],"address":{"line":["300 KENSINGTON AVE"],"city":"SPRINGFIELD","state":"MA","postalCode":"011071139","country":"US"},"position":{"longitude":-72.559437,"latitude":42.091896},"managingOrganization":{"identifier":{"system":"https://github.com/synthetichealth/synthea","value":"1311c44a-85cb-3aea-a143-e5d7892ced8b"},"display":"GROVE HILL MEDICAL CENTER PC"}}
{"resourceType":"Location","id":"3bd55dce-74dd-3c4a-987a-e65a54d05f0c","meta":{"profile":["http://hl7.org/fhir/us/core/StructureDefinition/us-core-location"]},"identifier":[{"system":"https://github.com/synthetichealth/synthea","value":"3bd55dce-74dd-3c4a-987a-e65a54d05f0c"}],"status":"active","name":"URGENT CARE CENTERS OF CENTRAL MASSACHUSETTS LLC","telecom":[{"system":"phone","value":"6173024194"}],"address":{"line":["757 BOSTON POST RD"],"city":"WORCESTER","state":"MA","postalCode":"016071728","country":"US"},"position":{"longitude":-72.165386,"latitude":42.231371},"managingOrganization":{"identifier":{"system":"https://github.com/synthetichealth/synthea","value":"667b46fe-0afa-3f70-a311-bbe3d52db050"},"display":"URGENT CARE CENTERS OF CENTRAL MASSACHUSETTS LLC"}}
{"resourceType":"Location","id":"e6ec0dff-eb3c-3e90-8165-bab39793bc36","meta":{"profile":["http://hl7.org/fhir/us/core/StructureDefinition/us-core-location"]},"identifier":[{"system":"https://github.com/synthetichealth/synthea","value":"e6ec0dff-eb3c-3e90-8165-bab39793bc36"}],"status":"active","name":"JEWISH NURSING HOME OF WESTERN MASS., INC.","telecom":[{"system":"phone","value":"4135673949"}],"address":{"line":["770 CONVERSE ST"],"city":"LONGMEADOW","state":"MA","postalCode":"011061719","country":"US"},"position":{"longitude":-72.5521444,"latitude":42.0639853},"managingOrganization":{"identifier":{"system":"https://github.com/synthetichealth/synthea","value":"775df862-d2d1-3a68-9814-043f6aa6ea66"},"display":"JEWISH NURSING HOME OF WESTERN MASS., INC."}}
{"resourceType":"Location","id":"5c72d2c7-8f40-3338-8990-a459ace2af7b","meta":{"profile":["http://hl7.org/fhir/us/core/StructureDefinition/us-core-location"]},"identifier":[{"system":"https://github.com/synthetichealth/synthea","value":"5c72d2c7-8f40-3338-8990-a459ace2af7b"}],"status":"active","name":"WELLMAN HEALTHCARE GROUP INC","telecom":[{"system":"phone","value":"4132838361"}],"address":{"line":["250 SHEARER ST"],"city":"PALMER","state":"MA","postalCode":"010691428","country":"US"},"position":{"longitude":-72.33353526811578,"latitude":42.168634600000004},"managingOrganization":{"identifier":{"system":"https://github.com/synthetichealth/synthea","value":"5d4da50c-8593-304f-b266-57d8f7d634a2"},"display":"WELLMAN HEALTHCARE GROUP INC"}}
{"resourceType":"Location","id":"d09be4ee-f37e-329d-9831-e7373b8d8ee4","meta":{"profile":["http://hl7.org/fhir/us/core/StructureDefinition/us-core-location"]},"identifier":[{"system":"https://github.com/synthetichealth/synthea","value":"d09be4ee-f37e-329d-9831-e7373b8d8ee4"}],"status":"active","name":"SKIN WELLNESS PHYSICIANS LLC","telecom":[{"system":"phone","value":"9785247933"}],"address":{"line":["85 HERRICK ST"],"city":"BEVERLY","state":"MA","postalCode":"019151790","country":"US"},"position":{"longitude":-70.8751357650672,"latitude":42.56415055},"managingOrganization":{"identifier":{"system":"https://github.com/synthetichealth/synthea","value":"84abfbd5-41c1-3df4-9b31-7ca93cb2309a"},"display":"SKIN WELLNESS PHYSICIANS LLC"}}
{"resourceType":"Location","id":"b5dd253c-eb28-30cb-bd7e-f4fc56cae70e","meta":{"profile":["http://hl7.org/fhir/us/core/StructureDefinition/us-core-location"]},"identifier":[{"system":"https://github.com/synthetichealth/synthea","value":"b5dd253c-eb28-30cb-bd7e-f4fc56cae70e"}],"status":"active","name":"BAYADA HOME HEALTH CARE, INC","telecom":[{"system":"phone","value":"6174721333"}],"address":{"line":["127 CAMBRIDGE STREET, SUTIE #2B"],"city":"BURLINGTON","state":"MA","postalCode":"018033735","country":"US"},"position":{"longitude":-71.19559351572005,"latitude":42.50188325},"managingOrganization":{"identifier":{"system":"https://github.com/synthetichealth/synthea","value":"1ddd51d1-7297-3c3b-bad5-98aecd5e4a79"},"display":"BAYADA HOME HEALTH CARE, INC"}}
{"resourceType":"Location","id":"7d3a8231-d725-367e-b9ed-22c2e7791fb8","meta":{"profile":["http://hl7.org/fhir/us/core/StructureDefinition/us-core-location"]},"identifier":[{"system":"https://github.com/synthetichealth/synthea","value":"7d3a8231-d725-367e-b9ed-22c2e7791fb8"}],"status":"active","name":"PAIN AND WELLNESS CENTER","telecom":[{"system":"phone","value":"9788267230"}],"address":{"line":["10 CENTENNIAL DR"],"city":"PEABODY","state":"MA","postalCode":"019607938","country":"US"},"position":{"longitude":-70.9529896,"latitude":42.5261827},"managingOrganization":{"identifier":{"system":"https://github.com/synthetichealth/synthea","value":"93c3d861-e05d-33b9-91eb-1768470229d7"},"display":"PAIN AND WELLNESS CENTER"}}
{"resourceType":"Location","id":"4e86f986-f485-32ed-87d2-637de8d73dc7","meta":{"profile":["http://hl7.org/fhir/us/core/StructureDefinition/us-core-location"]},"identifier":[{"system":"https://github.com/synthetichealth/synthea","value":"4e86f986-f485-32ed-87d2-637de8d73dc7"}],"status":"active","name":"Edith Nourse Rogers Memorial Veterans Hospital (Bedford VA)","telecom":[{"system":"phone","value":"781-687-2000"}],"address":{"line":["200 Springs Rd."],"city":"Bedford","state":"MA","postalCode":"01730","country":"US"},"position":{"longitude":-71.272644,"latitude":42.503376},"managingOrganization":{"identifier":{"system":"https://github.com/synthetichealth/synthea","value":"8d0f0e66-b1dc-37fd-8b4e-0dcb6b3b446e"},"display":"Edith Nourse Rogers Memorial Veterans Hospital (Bedford VA)"}}
{"resourceType":"Location","id":"56c0f588-9c90-3389-9435-c47061260b95","meta":{"profile":["http://hl7.org/fhir/us/core/StructureDefinition/us-core-location"]},"identifier":[{"system":"https://github.com/synthetichealth/synthea","value":"56c0f588-9c90-3389-9435-c47061260b95"}],"status":"active","name":"BAYSTATE NOBLE HOSPITAL CORPORATION","telecom":[{"system":"phone","value":"4135682811"}],"address":{"line":["115 W SILVER ST"],"city":"WESTFIELD","state":"MA","postalCode":"010853678","country":"US"},"position":{"longitude":-72.75935246865802,"latitude":42.1178811},"managingOrganization":{"identifier":{"system":"https://github.com/synthetichealth/synthea","value":"0ddb0329-b59d-3187-874c-602c649249c8"},"display":"BAYSTATE NOBLE HOSPITAL CORPORATION"}}
{"resourceType":"Location","id":"d4eff21d-2174-3411-a7af-bf826f592e92","meta":{"profile":["http://hl7.org/fhir/us/core/StructureDefinition/us-core-location"]},"identifier":[{"system":"https://github.com/synthetichealth/synthea","value":"d4eff21d-2174-3411-a7af-bf826f592e92"}],"status":"active","name":"LEAP INTO WELLNESS,LLC","telecom":[{"system":"phone","value":"5082748222"}],"address":{"line":["480 ROUTE 6A"],"city":"EAST SANDWICH","state":"MA","postalCode":"025371438","country":"US"},"position":{"longitude":-70.45251,"latitude":41.742172},"managingOrganization":{"identifier":{"system":"https://github.com/synthetichealth/synthea","value":"5fa5e611-be3d-3ebb-8f71-124325f6005f"},"display":"LEAP INTO WELLNESS,LLC"}}
{"resourceType":"Location","id":"f10e32a6-7557-355e-b1c5-b9fba1c08a30","meta":{"profile":["http://hl7.org/fhir/us/core/StructureDefinition/us-core-location"]},"identifier":[{"system":"https://github.com/synthetichealth/synthea","value":"f10e32a6-7557-355e-b1c5-b9fba1c08a30"}],"status":"active","name":"STEWARD ST. ANNES HOSPITAL CORPORATION","telecom":[{"system":"phone","value":"5086745600"}],"address":{"line":["795 MIDDLE ST"],"city":"FALL RIVER","state":"MA","postalCode":"027211733","country":"US"},"position":{"longitude":-71.16345107025307,"latitude":41.6924092},"managingOrganization":{"identifier":{"system":"https://github.com/synthetichealth/synthea","value":"bf556284-7513-3620-a10e-5393183a9a87"},"display":"STEWARD ST. ANNES HOSPITAL CORPORATION"}}
{"resourceType":"Location","id":"c258d24f-da69-376a-a42f-f30f23688826","meta":{"profile":["http://hl7.org/fhir/us/core/StructureDefinition/us-core-location"]},"identifier":[{"system":"https://github.com/synthetichealth/synthea","value":"c258d24f-da69-376a-a42f-f30f23688826"}],"status":"active","name":"HORIZONS HEALTH & WELLNESS LLC","telecom":[{"system":"phone","value":"7815859522"}],"address":{"line":["1029 PLEASANT ST"],"city":"BRIDGEWATER","state":"MA","postalCode":"023242301","country":"US"},"position":{"longitude":-71.00937893001648,"latitude":41.9718173},"managingOrganization":{"identifier":{"system":"https://github.com/synthetichealth/synthea","value":"2b84e56e-08b4-3078-b3ea-4d159208e065"},"display":"HORIZONS HEALTH & WELLNESS LLC"}}
{"resourceType":"Location","id":"1a9fa16a-1722-3112-b433-bd2e317ac53b","meta":{"profile":["http://hl7.org/fhir/us/core/StructureDefinition/us-core-location"]},"identifier":[{"system":"https://github.com/synthetichealth/synthea","value":"1a9fa16a-1722-3112-b433-bd2e317ac53b"}],"status":"active","name":"BAYADA HOME HEALTH CARE , INC","telecom":[{"system":"phone","value":"5087788800"}],"address":{"line":["750  ATTUCKS LANE"],"city":"HYANNIS","state":"MA","postalCode":"026011950","country":"US"},"position":{"longitude":-70.29727035,"latitude":41.676027500000004},"managingOrganization":{"identifier":{"system":"https://github.com/synthetichealth/synthea","value":"05137a62-1a8f-34ff-8baf-a0c35c238ea0"},"display":"BAYADA HOME HEALTH CARE , INC"}}
{"resourceType":"Location","id":"e55be38d-1d5b-3562-95fa-a9e2f551035d","meta":{"profile":["http://hl7.org/fhir/us/core/StructureDefinition/us-core-location"]},"identifier":[{"system":"https://github.com/synthetichealth/synthea","value":"e55be38d-1d5b-3562-95fa-a9e2f551035d"}],"status":"active","name":"SOUTHCOAST HOSPITAL GROUP, INC","telecom":[{"system":"phone","value":"5086793131"}],"address":{"line":["363 HIGHLAND AVENUE"],"city":"WAREHAM","state":"MA","postalCode":"025715011","country":"US"},"position":{"longitude":-70.658192,"latitude":41.745636},"managingOrganization":{"identifier":{"system":"https://github.com/synthetichealth/synthea","value":"4ffa4412-1493-3beb-b8f0-6614dde953a4"},"display":"SOUTHCOAST HOSPITAL GROUP, INC"}}
{"resourceType":"Location","id":"ff8b4bf7-6d5b-3c61-ae06-d4dce23241ae","meta":{"profile":["http://hl7.org/fhir/us/core/StructureDefinition/us-core-location"]},"identifier":[{"system":"https://github.com/synthetichealth/synthea","value":"ff8b4bf7-6d5b-3c61-ae06-d4dce23241ae"}],"status":"active","name":"LYNN URGENT CARE LLC","telecom":[{"system":"phone","value":"6178939901"}],"address":{"line":["776 WESTERN AVE"],"city":"LYNN","state":"MA","postalCode":"019052408","country":"US"},"position":{"longitude":-70.9494939,"latitude":42.466763},"managingOrganization":{"identifier":{"system":"https://github.com/synthetichealth/synthea","value":"a14e698d-a9ba-3eae-9c8b-682ec726433d"},"display":"LYNN URGENT CARE LLC"}}
{"resourceType":"Location","id":"67ecd1a4-5b67-3856-b2ac-c268efd07c50","meta":{"profile":["http://hl7.org/fhir/us/core/StructureDefinition/us-core-location"]},"identifier":[{"system":"https://github.com/synthetichealth/synthea","value":"67ecd1a4-5b67-3856-b2ac-c268efd07c50"}],"status":"active","name":"FAMILY MEDICINE ASSOCIATES OF SOUTH ATTLEBORO, P.C.","telecom":[{"system":"phone","value":"5087615650"}],"address":{"line":["562 WASHINGTON ST"],"city":"SOUTH ATTLEBORO","state":"MA","postalCode":"027036942","country":"US"},"position":{"longitude":-71.36135809627689,"latitude":41.912892049999996},"managingOrganization":{"identifier":{"system":"https://github.com/synthetichealth/synthea","value":"de29a374-221b-3cb4-8051-a02c1a35e5b7"},"display":"FAMILY MEDICINE ASSOCIATES OF SOUTH ATTLEBORO, P.C."}}
{"resourceType":"Location","id":"7d858f43-251f-3a22-984f-2b149827dd9c","meta":{"profile":["http://hl7.org/fhir/us/core/StructureDefinition/us-core-location"]},"identifier":[{"system":"https://github.com/synthetichealth/synthea","value":"7d858f43-251f-3a22-984f-2b149827dd9c"}],"status":"active","name":"ELARA CARING","telecom":[{"system":"phone","value":"9784620209"}],"address":{"line":["12 KENT WAY, SUITE 210"],"city":"BYFIELD","state":"MA","postalCode":"019221221","country":"US"},"position":{"longitude":-70.9451078257969,"latitude":42.75468625},"managingOrganization":{"identifier":{"system":"https://github.com/synthetichealth/synthea","value":"06f1d816-dd54-3409-bd94-8dc2745f807c"},"display":"ELARA CARING"}}
{"resourceType":"Location","id":"3d3859e6-b445-3282-9a18-ad3aadf1ea90","meta":{"profile":["http://hl7.org/fhir/us/core/StructureDefinition/us-core-location"]},"identifier":[{"system":"https://github.com/synthetichealth/synthea","value":"3d3859e6-b445-3282-9a18-ad3aadf1ea90"}],"status":"active","name":"WILMINGTON REHAB CENTER LLC","telecom":[{"system":"phone","value":"9786582700"}],"address":{"line":["90 WEST STREET"],"city":"WILMINGTON","state":"MA","postalCode":"018873039","country":"US"},"position":{"longitude":-71.13933791916014,"latitude":42.54038775},"managingOrganization":{"identifier":{"system":"https://github.com/synthetichealth/synthea","value":"044e0760-ec11-3452-a46e-8af2bbeec083"},"display":"WILMINGTON REHAB CENTER LLC"}}
{"resourceType":"Location","id":"2ec6fc39-797f-35c5-83da-01ae99a1b8c6","meta":{"profile":["http://hl7.org/fhir/us/core/StructureDefinition/us-core-location"]},"identifier":[{"system":"https://github.com/synthetichealth/synthea","value":"2ec6fc39-797f-35c5-83da-01ae99a1b8c6"}],"status":"active","name":"KATZMAN FAMILY CENTER FOR LIVING","telecom":[{"system":"phone","value":"6178846766"}],"address":{"line":["17 LAFAYETTE AVENUE"],"city":"CHELSEA","state":"MA","postalCode":"021502010","country":"US"},"position":{"longitude":-71.03050082480353,"latitude":42.40019115},"managingOrganization":{"identifier":{"system":"https://github.com/synthetichealth/synthea","value":"fe30f2b4-9bc8-346e-afba-4455d1766545"},"display":"KATZMAN FAMILY CENTER FOR LIVING"}}
{"resourceType":"Location","id":"963b0058-dfda-3f25-abaf-15a7368b3a3b","meta":{"profile":["http://hl7.org/fhir/us/core/StructureDefinition/us-core-location"]},"identifier":[{"system":"https://github.com/synthetichealth/synthea","value":"963b0058-dfda-3f25-abaf-15a7368b3a3b"}],"status":"active","name":"WESTERN MASSACHUSETTS HOSPITAL","telecom":[{"system":"phone","value":"4135624131"}],"address":{"line":["91 EAST MOUNTAIN ROAD"],"city":"WESTFIELD","state":"MA","postalCode":"010851801","country":"US"},"position":{"longitude":-72.70066160206358,"latitude":42.110743549999995},"managingOrganization":{"identifier":{"system":"https://github.com/synthetichealth/synthea","value":"4bc0cc09-77e5-37f5-844d-64a6637cae54"},"display":"WESTERN MASSACHUSETTS HOSPITAL"}}
{"resourceType":"Location","id":"2ac42b29-8d6a-3319-a57a-c9b68dc54c0d","meta":{"profile":["http://hl7.org/fhir/us/core/StructureDefinition/us-core-location"]},"identifier":[{"system":"https://github.com/synthetichealth/synthea","value":"2ac42b29-8d6a-3319-a57a-c9b68dc54c0d"}],"status":"active","name":"AP MEDICAL LLC","telecom":[{"system":"phone","value":"5089715190"}],"address":{"line":["909 SUMNER ST"],"city":"DARTMOUTH","state":"MA","postalCode":"027473826","country":"US"},"position":{"longitude":-70.9879928,"latitude":41.6332267},"managingOrganization":{"identifier":{"system":"https://github.com/synthetichealth/synthea","value":"aade280a-3b90-3e48-9648-91109a964a63"},"display":"AP MEDICAL LLC"}}
{"resourceType":"Location","id":"50f0f829-0cb0-35cf-9e3f-c2f2e54827c3","meta":{"profile":["http://hl7.org/fhir/us/core/StructureDefinition/us-core-location"]},"identifier":[{"system":"https://github.com/synthetichealth/synthea","value":"50f0f829-0cb0-35cf-9e3f-c2f2e54827c3"}],"status":"active","name":"BAYSTATE MEDICAL CENTER","telecom":[{"system":"phone","value":"4137940000"}],"address":{"line":["759 CHESTNUT ST"],"city":"WARE","state":"MA","postalCode":"010821625","country":"US"},"position":{"longitude":-72.237482,"latitude":42.256476},"managingOrganization":{"identifier":{"system":"https://github.com/synthetichealth/synthea","value":"e59fb2d5-508c-38c6-af2e-21d8216dd2b0"},"display":"BAYSTATE MEDICAL CENTER"}}
{"resourceType":"Location","id":"52597ad4-78e8-3e87-bfc5-062b0a271562","meta":{"profile":["http://hl7.org/fhir/us/core/StructureDefinition/us-core-location"]},"identifier":[{"system":"https://github.com/synthetichealth/synthea","value":"52597ad4-78e8-3e87-bfc5-062b0a271562"}],"status":"active","name":"PRIMARY CARE ASSOCIATES LLC","telecom":[{"system":"phone","value":"4137872800"}],"address":{"line":["780 CHESTNUT ST"],"city":"SPRINGFIELD","state":"MA","postalCode":"011031109","country":"US"},"position":{"longitude":-72.60614164702717,"latitude":42.1211633},"managingOrganization":{"identifier":{"system":"https://github.com/synthetichealth/synthea","value":"ecadbc11-930c-3903-b706-f8ef4bc9089e"},"display":"PRIMARY CARE ASSOCIATES LLC"}}
{"resourceType":"Location","id":"b87feefa-fec6-315b-b78c-998efcaf087c","meta":{"profile":["http://hl7.org/fhir/us/core/StructureDefinition/us-core-location"]},"identifier":[{"system":"https://github.com/synthetichealth/synthea","value":"b87feefa-fec6-315b-b78c-998efcaf087c"}],"status":"active","name":"ST JOSEPH MANOR HEALTH CARE INC","telecom":[{"system":"phone","value":"5085835834"}],"address":{"line":["215 THATCHER STREET"],"city":"BROCKTON","state":"MA","postalCode":"023023949","country":"US"},"position":{"longitude":-70.99660306096918,"latitude":42.0740963},"managingOrganization":{"identifier":{"system":"https://github.com/synthetichealth/synthea","value":"794b1cc2-97be-30a4-83a0-4bf6add43c74"},"display":"ST JOSEPH MANOR HEALTH CARE INC"}}
{"resourceType":"Location","id":"89c228b8-12e8-3436-9c1a-2bed9ee524d2","meta":{"profile":["http://hl7.org/fhir/us/core/StructureDefinition/us-core-location"]},"identifier":[{"system":"https://github.com/synthetichealth/synthea","value":"89c228b8-12e8-3436-9c1a-2bed9ee524d2"}],"status":"active","name":"LAHEY HOSPITAL & MEDICAL CENTER, BURLINGTON","telecom":[{"system":"phone","value":"7817445100"}],"address":{"line":["41 & 45 MALL ROAD"],"city":"PEABODY","state":"MA","postalCode":"019602901","country":"US"},"position":{"longitude":-70.9286609,"latitude":42.5278731},"managingOrganization":{"identifier":{"system":"https://github.com/synthetichealth/synthea","value":"440fa4b8-c731-3cf5-81d9-aa3f30a37b95"},"display":"LAHEY HOSPITAL & MEDICAL CENTER, BURLINGTON"}}
{"resourceType":"Location","id":"6b83ae14-0a1f-34c6-b28b-2e03c7b99f62","meta":{"profile":["http://hl7.org/fhir/us/core/StructureDefinition/us-core-location"]},"identifier":[{"system":"https://github.com/synthetichealth/synthea","value":"6b83ae14-0a1f-34c6-b28b-2e03c7b99f62"}],"status":"active","name":"BRIDGEWATER NURSING HOME","telecom":[{"system":"phone","value":"5086974616"}],"address":{"line":["16 PLEASANT STREET"],"city":"BRIDGEWATER","state":"MA","postalCode":"023242420","country":"US"},"position":{"longitude":-70.97978204646246,"latitude":41.98625885},"managingOrganization":{"identifier":{"system":"https://github.com/synthetichealth/synthea","value":"aaa7ebaf-b1a0-38c1-ba89-a16712cf431c"},"display":"BRIDGEWATER NURSING HOME"}}
{"resourceType":"Location","id":"5f6e0c02-55e7-3032-bf04-4183a7fbfd66","meta":{"profile":["http://hl7.org/fhir/us/core/StructureDefinition/us-core-location"]},"identifier":[{"system":"https://github.com/synthetichealth/synthea","value":"5f6e0c02-55e7-3032-bf04-4183a7fbfd66"}],"status":"active","name":"NORTON HEALTH CARE PC","telecom":[{"system":"phone","value":"5089301927"}],"address":{"line":["85 E MAIN ST STE A"],"city":"NORTON","state":"MA","postalCode":"027662307","country":"US"},"position":{"longitude":-71.17689334021827,"latitude":41.971697},"managingOrganization":{"identifier":{"system":"https://github.com/synthetichealth/synthea","value":"e9a24be5-b0a3-3fd2-a606-dd13498024ea"},"display":"NORTON HEALTH CARE PC"}}
{"resourceType":"Location","id":"3244a00a-1543-3e2f-ac3b-a161a9b6e29e","meta":{"profile":["http://hl7.org/fhir/us/core/StructureDefinition/us-core-location"]},"identifier":[{"system":"https://github.com/synthetichealth/synthea","value":"3244a00a-1543-3e2f-ac3b-a161a9b6e29e"}],"status":"active","name":"HOLYOKE VISITING NURSE ASSOC & HOSPICE LIFE CARE","telecom":[{"system":"phone","value":"4135345691"}],"address":{"line":["575 BEECH STREET"],"city":"HOLYOKE","state":"MA","postalCode":"010406604","country":"US"},"position":{"longitude":-72.628169560868,"latitude":42.20105435},"managingOrganization":{"identifier":{"system":"https://github.com/synthetichealth/synthea","value":"2befa435-3070-3350-a15c-e43ac1e84b24"},"display":"HOLYOKE VISITING NURSE ASSOC & HOSPICE LIFE CARE"}}
{"resourceType":"Location","id":"0a6d5a96-47be-30f7-b20c-c49f38fde2a1","meta":{"profile":["http://hl7.org/fhir/us/core/StructureDefinition/us-core-location"]},"identifier":[{"system":"https://github.com/synthetichealth/synthea","value":"0a6d5a96-47be-30f7-b20c-c49f38fde2a1"}],"status":"active","name":"COOLEY DICKINSON HOSPITAL INC","telecom":[{"system":"phone","value":"4135822000"}],"address":{"line":["30 LOCUST ST"],"city":"NORTHAMPTON","state":"MA","postalCode":"010602052","country":"US"},"position":{"longitude":-72.65330802608176,"latitude":42.33032115},"managingOrganization":{"identifier":{"system":"https://github.com/synthetichealth/synthea","value":"b8421363-9807-3b16-a146-95336eea5cfb"},"display":"COOLEY DICKINSON HOSPITAL INC"}}
{"resourceType":"Location","id":"78175de6-182e-3f6d-a7f8-deb7cc543841","meta":{"profile":["http://hl7.org/fhir/us/core/StructureDefinition/us-core-location"]},"identifier":[{"system":"https://github.com/synthetichealth/synthea","value":"78175de6-182e-3f6d-a7f8-deb7cc543841"}],"status":"active","name":"COLEMAN HOUSE","telecom":[{"system":"phone","value":"5083519355"}],"address":{"line":["112 WEST MAIN STREET"],"city":"NORTHBOROUGH","state":"MA","postalCode":"015321824","country":"US"},"position":{"longitude":-71.65097281611972,"latitude":42.318559050000005},"managingOrganization":{"identifier":{"system":"https://github.com/synthetichealth/synthea","value":"3498e7d3-90fd-366b-bc6a-6f41dad6bae6"},"display":"COLEMAN HOUSE"}}
{"resourceType":"Location","id":"ba567bd8-9344-3431-b3db-64be9efd6e3f","meta":{"profile":["http://hl7.org/fhir/us/core/StructureDefinition/us-core-location"]},"identifier":[{"system":"https://github.com/synthetichealth/synthea","value":"ba567bd8-9344-3431-b3db-64be9efd6e3f"}],"status":"active","name":"TUFTS MEDICAL CENTER","telecom":[{"system":"phone","value":"6176365000"}],"address":{"line":["800 WASHINGTON STREET"],"city":"STONEHAM","state":"MA","postalCode":"021802445","country":"US"},"position":{"longitude":-71.0928919,"latitude":42.4863168},"managingOrganization":{"identifier":{"system":"https://github.com/synthetichealth/synthea","value":"901c2d40-1ca3-3879-9a20-c663b8adc0a9"},"display":"TUFTS MEDICAL CENTER"}}
{"resourceType":"Location","id":"2b33c37f-a97d-37be-bf95-0862b1be4a97","meta":{"profile":["http://hl7.org/fhir/us/core/StructureDefinition/us-core-location"]},"identifier":[{"system":"https://github.com/synthetichealth/synthea","value":"2b33c37f-a97d-37be-bf95-0862b1be4a97"}],"status":"active","name":"WP ACQUISITION SUB LLC","telecom":[{"system":"phone","value":"6158616000"}],"address":{"line":["76 SUMMER ST"],"city":"HAVERHILL","state":"MA","postalCode":"018305814","country":"US"},"position":{"longitude":-71.07306505177553,"latitude":42.7786873},"managingOrganization":{"identifier":{"system":"https://github.com/synthetichealth/synthea","value":"6170552c-4d27-3e64-8068-64a380f1837d"},"display":"WP ACQUISITION SUB LLC"}}
{"resourceType":"Location","id":"d1856ad0-bce0-324a-aae7-c86e3da39986","meta":{"profile":["http://hl7.org/fhir/us/core/StructureDefinition/us-core-location"]},"identifier":[{"system":"https://github.com/synthetichealth/synthea","value":"d1856ad0-bce0-324a-aae7-c86e3da39986"}],"status":"active","name":"CARING HEALTH CENTER, INC","telecom":[{"system":"phone","value":"4137391100"}],"address":{"line":["532 SUMNER AVE"],"city":"SPRINGFIELD","state":"MA","postalCode":"011082458","country":"US"},"position":{"longitude":-72.55792579166666,"latitude":42.08631583333334},"managingOrganization":{"identifier":{"system":"https://github.com/synthetichealth/synthea","value":"e6cc6043-299a-3581-8f6b-b3b5d62c46ae"},"display":"CARING HEALTH CENTER, INC"}}
{"resourceType":"Location","id":"c6e812b0-9e2e-3d09-b110-3c364f2ef2ea","meta":{"profile":["http://hl7.org/fhir/us/core/StructureDefinition/us-core-location"]},"identifier":[{"system":"https://github.com/synthetichealth/synthea","value":"c6e812b0-9e2e-3d09-b110-3c364f2ef2ea"}],"status":"active","name":"VIBRA HOSPITAL OF WESTERN MASS - CENTRAL CAMPUS","telecom":[{"system":"phone","value":"4137876700"}],"address":{"line":["111 HUNTOON MEMORIAL HIGHWAY, 1ST FLOOR"],"city":"SPRINGFIELD","state":"MA","postalCode":"011092550","country":"US"},"position":{"longitude":-72.5886727,"latitude":42.1018764},"managingOrganization":{"identifier":{"system":"https://github.com/synthetichealth/synthea","value":"b9e35b8a-9831-32d8-a6dc-d7a546c126b0"},"display":"VIBRA HOSPITAL OF WESTERN MASS - CENTRAL CAMPUS"}}
{"resourceType":"Location","id":"5fec911f-5702-3023-940e-c5d1e0665811","meta":{"profile":["http://hl7.org/fhir/us/core/StructureDefinition/us-core-location"]},"identifier":[{"system":"https://github.com/synthetichealth/synthea","value":"5fec911f-5702-3023-940e-c5d1e0665811"}],"status":"active","name":"CURAHEALTH STOUGHTON LLC","telecom":[{"system":"phone","value":"7812978200"}],"address":{"line":["909 SUMNER ST"],"city":"STOUGHTON","state":"MA","postalCode":"020723396","country":"US"},"position":{"longitude":-71.0830269025407,"latitude":42.1005097},"managingOrganization":{"identifier":{"system":"https://github.com/synthetichealth/synthea","value":"18df2721-3f76-3f83-94d5-63597cedd298"},"display":"CURAHEALTH STOUGHTON LLC"}}
{"resourceType":"Location","id":"32bb0f99-ac43-3c94-8dc5-3468f92b3bc9","meta":{"profile":["http://hl7.org/fhir/us/core/StructureDefinition/us-core-location"]},"identifier":[{"system":"https://github.com/synthetichealth/synthea","value":"32bb0f99-ac43-3c94-8dc5-3468f92b3bc9"}],"status":"active","name":"LIFE CARE CENTER OF WILBRAHAM","telecom":[{"system":"phone","value":"4135963111"}],"address":{"line":["2399 BOSTON ROAD"],"city":"WILBRAHAM","state":"MA","postalCode":"010951185","country":"US"},"position":{"longitude":-72.45048427046072,"latitude":42.14668485},"managingOrganization":{"identifier":{"system":"https://github.com/synthetichealth/synthea","value":"e1818b21-4458-3b9c-b2b8-7ed6f57ae078"},"display":"LIFE CARE CENTER OF WILBRAHAM"}}
{"resourceType":"Location","id":"98ebee45-2de9-3d5e-9845-2877038224a9","meta":{"profile":["http://hl7.org/fhir/us/core/StructureDefinition/us-core-location"]},"identifier":[{"system":"https://github.com/synthetichealth/synthea","value":"98ebee45-2de9-3d5e-9845-2877038224a9"}],"status":"active","name":"DILIGENCEHEALTHCARE","telecom":[{"system":"phone","value":"8574539843"}],"address":{"line":["30-40 WESTPARK STREET"],"city":"BROCKTON","state":"MA","postalCode":"023015241","country":"US"},"position":{"longitude":-71.0183787,"latitude":42.0834335},"managingOrganization":{"identifier":{"system":"https://github.com/synthetichealth/synthea","value":"328f813e-4de8-3ec2-a113-43f3ddfb0b2a"},"display":"DILIGENCEHEALTHCARE"}}
{"resourceType":"Location","id":"27985f5d-b367-3feb-ab8c-d3e9b878cd57","meta":{"profile":["http://hl7.org/fhir/us/core/StructureDefinition/us-core-location"]},"identifier":[{"system":"https://github.com/synthetichealth/synthea","value":"27985f5d-b367-3feb-ab8c-d3e9b878cd57"}],"status":"active","name":"COMPASSIONATE CARE HOSPICE","telecom":[{"system":"phone","value":"7819355550"}],"address":{"line":["800 CUMMINGS PARK, SUITE 3100"],"city":"WOBURN","state":"MA","postalCode":"018016355","country":"US"},"position":{"longitude":-71.1237712,"latitude":42.4977745},"managingOrganization":{"identifier":{"system":"https://github.com/synthetichealth/synthea","value":"200746fc-5d0f-3ec7-a2a9-3d9a219ee139"},"display":"COMPASSIONATE CARE HOSPICE"}}
{"resourceType":"Location","id":"91fdcaed-b3f5-3fa3-8900-d7a695dae72d","meta":{"profile":["http://hl7.org/fhir/us/core/StructureDefinition/us-core-location"]},"identifier":[{"system":"https://github.com/synthetichealth/synthea","value":"91fdcaed-b3f5-3fa3-8900-d7a695dae72d"}],"status":"active","name":"548 ELM STREET OPERATING COMPANY, LLC","telecom":[{"system":"phone","value":"4135863150"}],"address":{"line":["548 ELM STREET"],"city":"NORTHAMPTON","state":"MA","postalCode":"010602832","country":"US"},"position":{"longitude":-72.657308,"latitude":42.327755},"managingOrganization":{"identifier":{"system":"https://github.com/synthetichealth/synthea","value":"66505876-04a4-3f6e-9aa8-7232ee43ab76"},"display":"548 ELM STREET OPERATING COMPANY, LLC"}}
{"resourceType":"Location","id":"6f1bb370-f9f8-3678-8d87-527cb322efd6","meta":{"profile":["http://hl7.org/fhir/us/core/StructureDefinition/us-core-location"]},"identifier":[{"system":"https://github.com/synthetichealth/synthea","value":"6f1bb370-f9f8-3678-8d87-527cb322efd6"}],"status":"active","name":"FIRST PSYCHIATRIC PLANNERS, INC","telecom":[{"system":"phone","value":"6174690300"}],"address":{"line":["300 SOUTH ST"],"city":"WOBURN","state":"MA","postalCode":"018014979","country":"US"},"position":{"longitude":-71.144086,"latitude":42.473347},"managingOrganization":{"identifier":{"system":"https://github.com/synthetichealth/synthea","value":"5018c664-e283-30eb-932a-529d9a19b3b5"},"display":"FIRST PSYCHIATRIC PLANNERS, INC"}}
{"resourceType":"Location","id":"61728ca7-d723-3602-a9b5-e6efddc42982","meta":{"profile":["http://hl7.org/fhir/us/core/StructureDefinition/us-core-location"]},"identifier":[{"system":"https://github.com/synthetichealth/synthea","value":"61728ca7-d723-3602-a9b5-e6efddc42982"}],"status":"active","name":"GREEN MOUNTAIN URGENT CARE LLC","telecom":[{"system":"phone","value":"6035264635"}],"address":{"line":["856 STATE RD"],"city":"NORTH ADAMS","state":"MA","postalCode":"012473027","country":"US"},"position":{"longitude":-73.16330754755236,"latitude":42.69967208677275},"managingOrganization":{"identifier":{"system":"https://github.com/synthetichealth/synthea","value":"d4e48a16-0a60-3e90-81e5-c35b22ffe6af"},"display":"GREEN MOUNTAIN URGENT CARE LLC"}}
{"resourceType":"Location","id":"4b92a88a-c4c9-39d9-a2f7-ba0f24640f5a","meta":{"profile":["http://hl7.org/fhir/us/core/StructureDefinition/us-core-location"]},"identifier":[{"system":"https://github.com/synthetichealth/synthea","value":"4b92a88a-c4c9-39d9-a2f7-ba0f24640f5a"}],"status":"active","name":"CARDIOVASCULAR CENTER AT TUFTS MEDICAL CENTER INC","telecom":[{"system":"phone","value":"6176365000"}],"address":{"line":["800 WASHINGTON ST"],"city":"WORCESTER","state":"MA","postalCode":"016550002","country":"US"},"position":{"longitude":-71.867782,"latitude":42.180483},"managingOrganization":{"identifier":{"system":"https://github.com/synthetichealth/synthea","value":"4ff8b164-4cf5-3ab4-b0f2-7ce8fda920e5"},"display":"CARDIOVASCULAR CENTER AT TUFTS MEDICAL CENTER INC"}}
{"resourceType":"Location","id":"77d0e56e-29b2-3f76-8bba-6c6636d5922d","meta":{"profile":["http://hl7.org/fhir/us/core/StructureDefinition/us-core-location"]},"identifier":[{"system":"https://github.com/synthetichealth/synthea","value":"77d0e56e-29b2-3f76-8bba-6c6636d5922d"}],"status":"active","name":"CARECENTRAL URGENT CARE MEDICAL GROUP PC","telecom":[{"system":"phone","value":"7813412800"}],"address":{"line":["286 WASHINGTON ST"],"city":"STOUGHTON","state":"MA","postalCode":"020721763","country":"US"},"position":{"longitude":-71.1022598,"latitude":42.1384306},"managingOrganization":{"identifier":{"system":"https://github.com/synthetichealth/synthea","value":"bccd7d67-203c-3d93-b6b0-bff5a146cd1d"},"display":"CARECENTRAL URGENT CARE MEDICAL GROUP PC"}}
{"resourceType":"Location","id":"33d41b6a-45f5-315d-8b38-1531dcd7b0a3","meta":{"profile":["http://hl7.org/fhir/us/core/StructureDefinition/us-core-location"]},"identifier":[{"system":"https://github.com/synthetichealth/synthea","value":"33d41b6a-45f5-315d-8b38-1531dcd7b0a3"}],"status":"active","name":"STURDY MEMORIAL HOSPITAL INC","telecom":[{"system":"phone","value":"5082368110"}],"address":{"line":["211 PARK ST"],"city":"ATTLEBORO","state":"MA","postalCode":"027033143","country":"US"},"position":{"longitude":-71.2752081695297,"latitude":41.9419187},"managingOrganization":{"identifier":{"system":"https://github.com/synthetichealth/synthea","value":"63cb4d95-04a9-3a35-b5d9-f89e0377a48d"},"display":"STURDY MEMORIAL HOSPITAL INC"}}
{"resourceType":"Location","id":"675f6865-0e31-3731-8cef-233165fa6a6a","meta":{"profile":["http://hl7.org/fhir/us/core/StructureDefinition/us-core-location"]},"identifier":[{"system":"https://github.com/synthetichealth/synthea","value":"675f6865-0e31-3731-8cef-233165fa6a6a"}],"status":"active","name":"BERKSHIRE INTERNAL MEDICINE LLC","telecom":[{"system":"phone","value":"4137688217"}],"address":{"line":["51 S CHURCH ST"],"city":"PITTSFIELD","state":"MA","postalCode":"012016178","country":"US"},"position":{"longitude":-73.25863241543368,"latitude":42.44648205},"managingOrganization":{"identifier":{"system":"https://github.com/synthetichealth/synthea","value":"4e880cb9-1ca0-3582-b8cf-8a59b0d2b878"},"display":"BERKSHIRE INTERNAL MEDICINE LLC"}}
{"resourceType":"Location","id":"b4a84147-5846-3493-9c79-9cc87085a04d","meta":{"profile":["http://hl7.org/fhir/us/core/StructureDefinition/us-core-location"]},"identifier":[{"system":"https://github.com/synthetichealth/synthea","value":"b4a84147-5846-3493-9c79-9cc87085a04d"}],"status":"active","name":"VIBRA HOSPITAL OF WESTERN MASSACHUSETTS LLC","telecom":[{"system":"phone","value":"5088926000"}],"address":{"line":["111 HUNTOON MEMORIAL HWY"],"city":"ROCHDALE","state":"MA","postalCode":"015421305","country":"US"},"position":{"longitude":-71.89891616754682,"latitude":42.2020225},"managingOrganization":{"identifier":{"system":"https://github.com/synthetichealth/synthea","value":"a2a41caf-758f-3962-8e5f-e6e603f93d17"},"display":"VIBRA HOSPITAL OF WESTERN MASSACHUSETTS LLC"}}
{"resourceType":"Location","id":"fe7bac52-55ce-3bd6-80e8-a43d0e07b6bb","meta":{"profile":["http://hl7.org/fhir/us/core/StructureDefinition/us-core-location"]},"identifier":[{"system":"https://github.com/synthetichealth/synthea","value":"fe7bac52-55ce-3bd6-80e8-a43d0e07b6bb"}],"status":"active","name":"ROYAL HEALTH GROUP LLC","telecom":[{"system":"phone","value":"5087595752"}],"address":{"line":["8 LEWIS POINT ROAD"],"city":"BUZZARDS BAY","state":"MA","postalCode":"025325613","country":"US"},"position":{"longitude":-70.618087,"latitude":41.745383},"managingOrganization":{"identifier":{"system":"https://github.com/synthetichealth/synthea","value":"bfb9ab7d-7b8a-36c9-ac27-d210a6f6f412"},"display":"ROYAL HEALTH GROUP LLC"}}
{"resourceType":"Location","id":"36cefaa4-85d4-3801-8ca3-fb0a907f04be","meta":{"profile":["http://hl7.org/fhir/us/core/StructureDefinition/us-core-location"]},"identifier":[{"system":"https://github.com/synthetichealth/synthea","value":"36cefaa4-85d4-3801-8ca3-fb0a907f04be"}],"status":"active","name":"JEWISH FAMILY & CHILDREN'S SERVICE","telecom":[{"system":"phone","value":"7816475327"}],"address":{"line":["1430 MAIN ST"],"city":"WORCESTER","state":"MA","postalCode":"016091121","country":"US"},"position":{"longitude":-71.92931780325071,"latitude":42.2492003},"managingOrganization":{"identifier":{"system":"https://github.com/synthetichealth/synthea","value":"d9fe2c9c-135e-3da3-8de8-1a0ff165d886"},"display":"JEWISH FAMILY & CHILDREN'S SERVICE"}}
{"resourceType":"Location","id":"8185579f-face-3a05-8ef5-de82996f012e","meta":{"profile":["http://hl7.org/fhir/us/core/StructureDefinition/us-core-location"]},"identifier":[{"system":"https://github.com/synthetichealth/synthea","value":"8185579f-face-3a05-8ef5-de82996f012e"}],"status":"active","name":"BEACON HOSPICE, AN AMYEDISYS COMPANY","telecom":[{"system":"phone","value":"4132051229"}],"address":{"line":["815 WORCESTER STREET"],"city":"SPRINGFIELD","state":"MA","postalCode":"011511001","country":"US"},"position":{"longitude":-72.5886727,"latitude":42.1018764},"managingOrganization":{"identifier":{"system":"https://github.com/synthetichealth/synthea","value":"8bf5325a-c11b-35c4-b07d-17a5aeba8353"},"display":"BEACON HOSPICE, AN AMYEDISYS COMPANY"}}
{"resourceType":"Location","id":"7771ffe2-9f78-3914-ae55-ce0d6a3ccba0","meta":{"profile":["http://hl7.org/fhir/us/core/StructureDefinition/us-core-location"]},"identifier":[{"system":"https://github.com/synthetichealth/synthea","value":"7771ffe2-9f78-3914-ae55-ce0d6a3ccba0"}],"status":"active","name":"BAYSTATE WING HOSPITAL CORPORATION","telecom":[{"system":"phone","value":"4132837651"}],"address":{"line":["40 WRIGHT ST"],"city":"PALMER","state":"MA","postalCode":"010691138","country":"US"},"position":{"longitude":-72.34120457065711,"latitude":42.16934095},"managingOrganization":{"identifier":{"system":"https://github.com/synthetichealth/synthea","value":"46375470-1e20-3ddc-8dc5-010ba53826b6"},"display":"BAYSTATE WING HOSPITAL CORPORATION"}}
{"resourceType":"Location","id":"576d472f-8972-352f-ad63-027e07f892ae","meta":{"profile":["http://hl7.org/fhir/us/core/StructureDefinition/us-core-location"]},"identifier":[{"system":"https://github.com/synthetichealth/synthea","value":"576d472f-8972-352f-ad63-027e07f892ae"}],"status":"active","name":"MEDICAL EXPRESS URGENT CARE CENTER CO INC","telecom":[{"system":"phone","value":"4137811100"}],"address":{"line":["438 CHESTNUT STREET"],"city":"SPRINGFIELD","state":"MA","postalCode":"011072008","country":"US"},"position":{"longitude":-72.59692685125127,"latitude":42.11291091861002},"managingOrganization":{"identifier":{"system":"https://github.com/synthetichealth/synthea","value":"aba3e6f6-4562-342e-b90f-dd61b117f394"},"display":"MEDICAL EXPRESS URGENT CARE CENTER CO INC"}}
{"resourceType":"Location","id":"2d00c4d4-8d30-37b4-b798-272868d66747","meta":{"profile":["http://hl7.org/fhir/us/core/StructureDefinition/us-core-location"]},"identifier":[{"system":"https://github.com/synthetichealth/synthea","value":"2d00c4d4-8d30-37b4-b798-272868d66747"}],"status":"active","name":"BETH ISRAEL LAHEY HEALTH AT HOME","telecom":[{"system":"phone","value":"9789212615"}],"address":{"line":["600 CUMMINGS CENTER, SUITE 270X"],"city":"WOBURN","state":"MA","postalCode":"018016356","country":"US"},"position":{"longitude":-71.1522766,"latitude":42.4792618},"managingOrganization":{"identifier":{"system":"https://github.com/synthetichealth/synthea","value":"47fb5a56-bee5-3ecd-9958-706b20831c82"},"display":"BETH ISRAEL LAHEY HEALTH AT HOME"}}
{"resourceType":"Location","id":"2fffaddf-5937-388c-93b2-78f4c5576eed","meta":{"profile":["http://hl7.org/fhir/us/core/StructureDefinition/us-core-location"]},"identifier":[{"system":"https://github.com/synthetichealth/synthea","value":"2fffaddf-5937-388c-93b2-78f4c5576eed"}],"status":"active","name":"DANA FARBER CANCER INSTITUTE","telecom":[{"system":"phone","value":"6176323000"}],"address":{"line":["450 BROOKLINE AVE"],"city":"WEYMOUTH","state":"MA","postalCode":"021893141","country":"US"},"position":{"longitude":-70.9391625,"latitude":42.2212188},"managingOrganization":{"identifier":{"system":"https://github.com/synthetichealth/synthea","value":"eee00932-ca82-36bc-b7e8-e3fff6dbaeaa"},"display":"DANA FARBER CANCER INSTITUTE"}}
{"resourceType":"Location","id":"0b9636e4-045c-3489-9a61-53e087cda329","meta":{"profile":["http://hl7.org/fhir/us/core/StructureDefinition/us-core-location"]},"identifier":[{"system":"https://github.com/synthetichealth/synthea","value":"0b9636e4-045c-3489-9a61-53e087cda329"}],"status":"active","name":"BOSTON HOME, INC (THE)","telecom":[{"system":"phone","value":"6178253905"}],"address":{"line":["2049 DORCHESTER AVENUE"],"city":"BOSTON","state":"MA","postalCode":"021244742","country":"US"},"position":{"longitude":-71.060511,"latitude":42.3554334},"managingOrganization":{"identifier":{"system":"https://github.com/synthetichealth/synthea","value":"be509ccb-bfb7-3b87-8945-8426b689ef9d"},"display":"BOSTON HOME, INC (THE)"}}
{"resourceType":"Location","id":"4e4c7840-e355-3d3d-b6c7-ab323daaa550","meta":{"profile":["http://hl7.org/fhir/us/core/StructureDefinition/us-core-location"]},"identifier":[{"system":"https://github.com/synthetichealth/synthea","value":"4e4c7840-e355-3d3d-b6c7-ab323daaa550"}],"status":"active","name":"APPLE VALLEY CENTER","telecom":[{"system":"phone","value":"9787721704"}],"address":{"line":["400 GROTON ROAD"],"city":"AYER","state":"MA","postalCode":"014321171","country":"US"},"position":{"longitude":-71.5733060441645,"latitude":42.57821195},"managingOrganization":{"identifier":{"system":"https://github.com/synthetichealth/synthea","value":"a06b1a97-d6ce-3ea1-ba4a-2ef85a8114ab"},"display":"APPLE VALLEY CENTER"}}
{"resourceType":"Location","id":"d057da19-99b5-3bf3-b87a-0bdee9b8b720","meta":{"profile":["http://hl7.org/fhir/us/core/StructureDefinition/us-core-location"]},"identifier":[{"system":"https://github.com/synthetichealth/synthea","value":"d057da19-99b5-3bf3-b87a-0bdee9b8b720"}],"status":"active","name":"RENAISSANCE PRIMARY CARE LLC","telecom":[{"system":"phone","value":"7744202311"}],"address":{"line":["11-15 SANDERSDALE ROAD"],"city":"WORCESTER","state":"MA","postalCode":"016032467","country":"US"},"position":{"longitude":-72.0084995,"latitude":42.0667952},"managingOrganization":{"identifier":{"system":"https://github.com/synthetichealth/synthea","value":"bce5b907-584b-345d-bbcf-912cf56cb6c3"},"display":"RENAISSANCE PRIMARY CARE LLC"}}
{"resourceType":"Location","id":"69fc5bac-35b9-3671-9b39-e157b58b6207","meta":{"profile":["http://hl7.org/fhir/us/core/StructureDefinition/us-core-location"]},"identifier":[{"system":"https://github.com/synthetichealth/synthea","value":"69fc5bac-35b9-3671-9b39-e157b58b6207"}],"status":"active","name":"BETH ISRAEL DEACONESS HOSPITAL PLYMOUTH INC","telecom":[{"system":"phone","value":"5087462000"}],"address":{"line":["275 SANDWICH ST"],"city":"PLYMOUTH","state":"MA","postalCode":"023607761","country":"US"},"position":{"longitude":-70.6455366462985,"latitude":41.94186605},"managingOrganization":{"identifier":{"system":"https://github.com/synthetichealth/synthea","value":"3ff0f58b-7a1f-3334-9449-ff15f68b7d86"},"display":"BETH ISRAEL DEACONESS HOSPITAL PLYMOUTH INC"}}
{"resourceType":"Location","id":"c90eacba-39d3-3606-8652-32ab9c07e724","meta":{"profile":["http://hl7.org/fhir/us/core/StructureDefinition/us-core-location"]},"identifier":[{"system":"https://github.com/synthetichealth/synthea","value":"c90eacba-39d3-3606-8652-32ab9c07e724"}],"status":"active","name":"HEALTH-MD URGENT CARE","telecom":[{"system":"phone","value":"4135043507"}],"address":{"line":["1238 RIVERDALE ST"],"city":"WEST SPRINGFIELD","state":"MA","postalCode":"010894675","country":"US"},"position":{"longitude":-72.62624707492338,"latitude":42.1373438},"managingOrganization":{"identifier":{"system":"https://github.com/synthetichealth/synthea","value":"70e3ad4f-b9ff-3f3e-9990-2cd7e23a9d1c"},"display":"HEALTH-MD URGENT CARE"}}
{"resourceType":"Location","id":"a601e138-7ad4-32e5-910f-f8d4fa8fbd51","meta":{"profile":["http://hl7.org/fhir/us/core/StructureDefinition/us-core-location"]},"identifier":[{"system":"https://github.com/synthetichealth/synthea","value":"a601e138-7ad4-32e5-910f-f8d4fa8fbd51"}],"status":"active","name":"Brockton Vet Center","telecom":[{"system":"phone","value":"508-580-2730 Or 508-580-2730"}],"address":{"line":["1041L Pearl St."],"city":"Brockton","state":"MA","postalCode":"02301","country":"US"},"position":{"longitude":-71.06661,"latitude":42.055134},"managingOrganization":{"identifier":{"system":"https://github.com/synthetichealth/synthea","value":"09434cf4-ae0d-32ad-bc16-5ce7b0e5c12b"},"display":"Brockton Vet Center"}}
{"resourceType":"Location","id":"9fd2d389-a1bc-3b59-af91-de436ec7a826","meta":{"profile":["http://hl7.org/fhir/us/core/StructureDefinition/us-core-location"]},"identifier":[{"system":"https://github.com/synthetichealth/synthea","value":"9fd2d389-a1bc-3b59-af91-de436ec7a826"}],"status":"active","name":"ARBOUR-FULLER HOSPITAL","telecom":[{"system":"phone","value":"5087618500"}],"address":{"line":["200 MAY ST"],"city":"SOUTH ATTLEBORO","state":"MA","postalCode":"027035520","country":"US"},"position":{"longitude":-71.36076410900014,"latitude":41.924394750000005},"managingOrganization":{"identifier":{"system":"https://github.com/synthetichealth/synthea","value":"a6964d47-8af0-3df2-b99d-d8414eb1cfa3"},"display":"ARBOUR-FULLER HOSPITAL"}}
{"resourceType":"Location","id":"a1b9aac4-0144-354f-b6fb-54bebb39b278","meta":{"profile":["http://hl7.org/fhir/us/core/StructureDefinition/us-core-location"]},"identifier":[{"system":"https://github.com/synthetichealth/synthea","value":"a1b9aac4-0144-354f-b6fb-54bebb39b278"}],"status":"active","name":"POPE NURSING HOME","telecom":[{"system":"phone","value":"7813354352"}],"address":{"line":["140 WEBB STREET"],"city":"WEYMOUTH","state":"MA","postalCode":"021882736","country":"US"},"position":{"longitude":-70.96226691624932,"latitude":42.22281125},"managingOrganization":{"identifier":{"system":"https://github.com/synthetichealth/synthea","value":"679a8e99-0f35-3eec-94ed-d8341e9fe33c"},"display":"POPE NURSING HOME"}}
{"resourceType":"Location","id":"6089a251-42f1-3d0f-b4da-74b5689fa06d","meta":{"profile":["http://hl7.org/fhir/us/core/StructureDefinition/us-core-location"]},"identifier":[{"system":"https://github.com/synthetichealth/synthea","value":"6089a251-42f1-3d0f-b4da-74b5689fa06d"}],"status":"active","name":"FALMOUTH HOSPITAL ASSOCIATION INC","telecom":[{"system":"phone","value":"5084573528"}],"address":{"line":["100 TER HEUN DR"],"city":"SANDWICH","state":"MA","postalCode":"025632377","country":"US"},"position":{"longitude":-70.4968152,"latitude":41.7579043},"managingOrganization":{"identifier":{"system":"https://github.com/synthetichealth/synthea","value":"9d989fcf-4ad9-3972-ada3-f275d967781e"},"display":"FALMOUTH HOSPITAL ASSOCIATION INC"}}
{"resourceType":"Location","id":"7a117e6c-d9d2-3085-a430-c71bf13ebc35","meta":{"profile":["http://hl7.org/fhir/us/core/StructureDefinition/us-core-location"]},"identifier":[{"system":"https://github.com/synthetichealth/synthea","value":"7a117e6c-d9d2-3085-a430-c71bf13ebc35"}],"status":"active","name":"ZANJABEE INTEGRATIVE MEDICINE AND PRIMARY CARE LLC","telecom":[{"system":"phone","value":"4019525488"}],"address":{"line":["300 TRADECENTER STE 4750"],"city":"WOBURN","state":"MA","postalCode":"018017420","country":"US"},"position":{"longitude":-71.161659,"latitude":42.4994143},"managingOrganization":{"identifier":{"system":"https://github.com/synthetichealth/synthea","value":"92d919ab-8380-3fda-a5f1-838e69b819c1"},"display":"ZANJABEE INTEGRATIVE MEDICINE AND PRIMARY CARE LLC"}}
{"resourceType":"Location","id":"f950f733-4573-39ad-bf0f-01f817798e29","meta":{"profile":["http://hl7.org/fhir/us/core/StructureDefinition/us-core-location"]},"identifier":[{"system":"https://github.com/synthetichealth/synthea","value":"f950f733-4573-39ad-bf0f-01f817798e29"}],"status":"active","name":"EAST LONGMEADOW SKILLED NURSING CENTER","telecom":[{"system":"phone","value":"4135256361"}],"address":{"line":["305 MAPLE STREET"],"city":"EAST LONGMEADOW","state":"MA","postalCode":"010282765","country":"US"},"position":{"longitude":-72.53388585052694,"latitude":42.059258494749486},"managingOrganization":{"identifier":{"system":"https://github.com/synthetichealth/synthea","value":"87472bc2-7c23-37cc-8355-7f3e88614b6b"},"display":"EAST LONGMEADOW SKILLED NURSING CENTER"}}
{"resourceType":"Location","id":"aa47652c-9712-32e7-94ef-aca7b58e51f9","meta":{"profile":["http://hl7.org/fhir/us/core/StructureDefinition/us-core-location"]},"identifier":[{"system":"https://github.com/synthetichealth/synthea","value":"aa47652c-9712-32e7-94ef-aca7b58e51f9"}],"status":"active","name":"CAPE REGENCY REHABILITATION & HEALTH CARE CENTER","telecom":[{"system":"phone","value":"5087781835"}],"address":{"line":["120 S MAIN STREET"],"city":"CENTERVILLE","state":"MA","postalCode":"026323246","country":"US"},"position":{"longitude":-70.34309844876677,"latitude":41.649898300000004},"managingOrganization":{"identifier":{"system":"https://github.com/synthetichealth/synthea","value":"b69bccdc-5ad3-3ded-a018-3cd8f369c9d2"},"display":"CAPE REGENCY REHABILITATION & HEALTH CARE CENTER"}}
{"resourceType":"Location","id":"d11f97b5-721f-3bcd-8c00-973ba1f8f1b3","meta":{"profile":["http://hl7.org/fhir/us/core/StructureDefinition/us-core-location"]},"identifier":[{"system":"https://github.com/synthetichealth/synthea","value":"d11f97b5-721f-3bcd-8c00-973ba1f8f1b3"}],"status":"active","name":"CHILDREN'S HOSPITAL CORPORATION","telecom":[{"system":"phone","value":"6173554831"}],"address":{"line":["300 LONGWOOD AVE"],"city":"WALTHAM","state":"MA","postalCode":"024532741","country":"US"},"position":{"longitude":-71.2358004,"latitude":42.3756401},"managingOrganization":{"identifier":{"system":"https://github.com/synthetichealth/synthea","value":"a2cc09de-c1e2-3126-8c09-d49f95225281"},"display":"CHILDREN'S HOSPITAL CORPORATION"}}
{"resourceType":"Location","id":"9185a49f-22c1-3487-a9fb-b04f00a15861","meta":{"profile":["http://hl7.org/fhir/us/core/StructureDefinition/us-core-location"]},"identifier":[{"system":"https://github.com/synthetichealth/synthea","value":"9185a49f-22c1-3487-a9fb-b04f00a15861"}],"status":"active","name":"NORTH END COMMUNITY HEALTH COMMITTEE INC","telecom":[{"system":"phone","value":"6176438000"}],"address":{"line":["332 HANOVER STREET"],"city":"BOSTON","state":"MA","postalCode":"021131901","country":"US"},"position":{"longitude":-71.0536619,"latitude":42.3647421},"managingOrganization":{"identifier":{"system":"https://github.com/synthetichealth/synthea","value":"9f2f60a6-87a4-3f45-b753-b63b5b7e9993"},"display":"NORTH END COMMUNITY HEALTH COMMITTEE INC"}}
{"resourceType":"Location","id":"7dda23a6-ca59-3027-9c30-0feed6c626ea","meta":{"profile":["http://hl7.org/fhir/us/core/StructureDefinition/us-core-location"]},"identifier":[{"system":"https://github.com/synthetichealth/synthea","value":"7dda23a6-ca59-3027-9c30-0feed6c626ea"}],"status":"active","name":"HOPKINTON MEDICAL CARE, P.C.","telecom":[{"system":"phone","value":"5084356900"}],"address":{"line":["73 W MAIN ST"],"city":"HOPKINTON","state":"MA","postalCode":"017481619","country":"US"},"position":{"longitude":-71.54005509979045,"latitude":42.21799145},"managingOrganization":{"identifier":{"system":"https://github.com/synthetichealth/synthea","value":"44cb1162-a345-3477-8723-c202a3c8cdcd"},"display":"HOPKINTON MEDICAL CARE, P.C."}}
{"resourceType":"Location","id":"e7dc7d9b-9a53-3c9b-9392-1c00a10ce91e","meta":{"profile":["http://hl7.org/fhir/us/core/StructureDefinition/us-core-location"]},"identifier":[{"system":"https://github.com/synthetichealth/synthea","value":"e7dc7d9b-9a53-3c9b-9392-1c00a10ce91e"}],"status":"active","name":"MEMORY SUPPORT OF HERITAGE HALL","telecom":[{"system":"phone","value":"4137868000"}],"address":{"line":["464 MAIN STREET"],"city":"AGAWAM","state":"MA","postalCode":"010011826","country":"US"},"position":{"longitude":-72.62026217030348,"latitude":42.07695165},"managingOrganization":{"identifier":{"system":"https://github.com/synthetichealth/synthea","value":"bebc1dac-6c42-3225-b0ba-23278cdf2a62"},"display":"MEMORY SUPPORT OF HERITAGE HALL"}}
{"resourceType":"Location","id":"c803be43-8e07-3be4-848e-09cea809ceb0","meta":{"profile":["http://hl7.org/fhir/us/core/StructureDefinition/us-core-location"]},"identifier":[{"system":"https://github.com/synthetichealth/synthea","value":"c803be43-8e07-3be4-848e-09cea809ceb0"}],"status":"active","name":"WOBURN NURSING CENTER INC","telecom":[{"system":"phone","value":"7819338175"}],"address":{"line":["18 FRANCES ST"],"city":"WOBURN","state":"MA","postalCode":"018013006","country":"US"},"position":{"longitude":-71.15015700746171,"latitude":42.488288600000004},"managingOrganization":{"identifier":{"system":"https://github.com/synthetichealth/synthea","value":"be9a14c1-72a6-3186-b199-fdb070768458"},"display":"WOBURN NURSING CENTER INC"}}
{"resourceType":"Location","id":"ab557804-9cef-3574-92f3-faccf764e1c9","meta":{"profile":["http://hl7.org/fhir/us/core/StructureDefinition/us-core-location"]},"identifier":[{"system":"https://github.com/synthetichealth/synthea","value":"ab557804-9cef-3574-92f3-faccf764e1c9"}],"status":"active","name":"EMERSON HOSPITAL","telecom":[{"system":"phone","value":"9782873226"}],"address":{"line":["133 OLD ROAD TO 9 ACRE COR"],"city":"WESTFORD","state":"MA","postalCode":"018863198","country":"US"},"position":{"longitude":-71.4378411,"latitude":42.5792583},"managingOrganization":{"identifier":{"system":"https://github.com/synthetichealth/synthea","value":"06cc2462-430f-3322-9c87-7e971125f510"},"display":"EMERSON HOSPITAL"}}
{"resourceType":"Location","id":"b64fdbb3-9be7-317c-a90d-fa24b912c836","meta":{"profile":["http://hl7.org/fhir/us/core/StructureDefinition/us-core-location"]},"identifier":[{"system":"https://github.com/synthetichealth/synthea","value":"b64fdbb3-9be7-317c-a90d-fa24b912c836"}],"status":"active","name":"BLUEBERRY HILL REHABILITATION AND HEALTHCARE CTR","telecom":[{"system":"phone","value":"9789272020"}],"address":{"line":["75 BRIMBAL AVENUE"],"city":"BEVERLY","state":"MA","postalCode":"019156009","country":"US"},"position":{"longitude":-70.87108224250409,"latitude":42.570099299999995},"managingOrganization":{"identifier":{"system":"https://github.com/synthetichealth/synthea","value":"ee7fab6f-6438-394f-b1f2-3e452f8f055a"},"display":"BLUEBERRY HILL REHABILITATION AND HEALTHCARE CTR"}}
{"resourceType":"Location","id":"720b6888-9941-34d4-8fcb-91343d69d4f2","meta":{"profile":["http://hl7.org/fhir/us/core/StructureDefinition/us-core-location"]},"identifier":[{"system":"https://github.com/synthetichealth/synthea","value":"720b6888-9941-34d4-8fcb-91343d69d4f2"}],"status":"active","name":"NASHOBA VALLEY MEDICAL CENTER","telecom":[{"system":"phone","value":"9787849000"}],"address":{"line":["200 GROTON ROAD"],"city":"GROTON","state":"MA","postalCode":"014502056","country":"US"},"position":{"longitude":-71.57414587343038,"latitude":42.577352149999996},"managingOrganization":{"identifier":{"system":"https://github.com/synthetichealth/synthea","value":"79508e39-d0b0-3613-9d54-168f6e1c3a18"},"display":"NASHOBA VALLEY MEDICAL CENTER"}}
{"resourceType":"Location","id":"47a2789d-e285-3254-8365-34149cfbc8d1","meta":{"profile":["http://hl7.org/fhir/us/core/StructureDefinition/us-core-location"]},"identifier":[{"system":"https://github.com/synthetichealth/synthea","value":"47a2789d-e285-3254-8365-34149cfbc8d1"}],"status":"active","name":"SUNRISE HEALTHCARE LLC","telecom":[{"system":"phone","value":"6176509959"}],"address":{"line":["37 MINUTEMAN WAY"],"city":"SHREWSBURY","state":"MA","postalCode":"015452229","country":"US"},"position":{"longitude":-71.73443816915585,"latitude":42.288207},"managingOrganization":{"identifier":{"system":"https://github.com/synthetichealth/synthea","value":"a2d45ee8-b930-3169-b612-f602961ad212"},"display":"SUNRISE HEALTHCARE LLC"}}
{"resourceType":"Location","id":"5bf36fce-f48a-395f-bd66-65e47efb8703","meta":{"profile":["http://hl7.org/fhir/us/core/StructureDefinition/us-core-location"]},"identifier":[{"system":"https://github.com/synthetichealth/synthea","value":"5bf36fce-f48a-395f-bd66-65e47efb8703"}],"status":"active","name":"METROWEST MEDICAL CENTER","telecom":[{"system":"phone","value":"5083831000"}],"address":{"line":["115 LINCOLN STREET"],"city":"WORCESTER","state":"MA","postalCode":"016081216","country":"US"},"position":{"longitude":-71.795274,"latitude":42.2768165},"managingOrganization":{"identifier":{"system":"https://github.com/synthetichealth/synthea","value":"0fa1cab9-83c1-3c85-b7bc-53d8b922e2f7"},"display":"METROWEST MEDICAL CENTER"}}
{"resourceType":"Location","id":"107109e7-f40f-304f-9ab1-14207f258c4c","meta":{"profile":["http://hl7.org/fhir/us/core/StructureDefinition/us-core-location"]},"identifier":[{"system":"https://github.com/synthetichealth/synthea","value":"107109e7-f40f-304f-9ab1-14207f258c4c"}],"status":"active","name":"STANLEY STREET TREATMENT AND RESOURCES INC","telecom":[{"system":"phone","value":"5086751054"}],"address":{"line":["400 STANLEY ST"],"city":"FALL RIVER","state":"MA","postalCode":"027206009","country":"US"},"position":{"longitude":-71.13527009152534,"latitude":41.7148511},"managingOrganization":{"identifier":{"system":"https://github.com/synthetichealth/synthea","value":"e6d63525-40f0-3391-a58a-e6a03598911f"},"display":"STANLEY STREET TREATMENT AND RESOURCES INC"}}
{"resourceType":"Location","id":"48282f29-73ac-39cb-8a6d-28cb95a46c4d","meta":{"profile":["http://hl7.org/fhir/us/core/StructureDefinition/us-core-location"]},"identifier":[{"system":"https://github.com/synthetichealth/synthea","value":"48282f29-73ac-39cb-8a6d-28cb95a46c4d"}],"status":"active","name":"STANLEY STREET TREATMENT AND RESOURCES, INC","telecom":[{"system":"phone","value":"5086751054"}],"address":{"line":["1010 SOUTH MAIN STREET"],"city":"FALL RIVER","state":"MA","postalCode":"027242855","country":"US"},"position":{"longitude":-71.16515282264554,"latitude":41.690775450000004},"managingOrganization":{"identifier":{"system":"https://github.com/synthetichealth/synthea","value":"fb4a08b8-57ee-382b-b3cb-43d94f1bb4c0"},"display":"STANLEY STREET TREATMENT AND RESOURCES, INC"}}
{"resourceType":"Location","id":"1643c041-95c7-3639-932b-2e8ea85c7d82","meta":{"profile":["http://hl7.org/fhir/us/core/StructureDefinition/us-core-location"]},"identifier":[{"system":"https://github.com/synthetichealth/synthea","value":"1643c041-95c7-3639-932b-2e8ea85c7d82"}],"status":"active","name":"BERKSHIRE MEDICAL CENTER INC","telecom":[{"system":"phone","value":"4134472000"}],"address":{"line":["725 NORTH ST"],"city":"PITTSFIELD","state":"MA","postalCode":"012014109","country":"US"},"position":{"longitude":-73.2492795834909,"latitude":42.4600752},"managingOrganization":{"identifier":{"system":"https://github.com/synthetichealth/synthea","value":"f43f97f2-af04-3ed0-a42e-3681718cc9b2"},"display":"BERKSHIRE MEDICAL CENTER INC"}}
{"resourceType":"Location","id":"d255dc7a-0687-3b6e-8c02-5d76284dc430","meta":{"profile":["http://hl7.org/fhir/us/core/StructureDefinition/us-core-location"]},"identifier":[{"system":"https://github.com/synthetichealth/synthea","value":"d255dc7a-0687-3b6e-8c02-5d76284dc430"}],"status":"active","name":"GEORGETOWN FAMILY MEDICINE LLC","telecom":[{"system":"phone","value":"9788870222"}],"address":{"line":["256 GEORGETOWN RD"],"city":"BOXFORD","state":"MA","postalCode":"019211642","country":"US"},"position":{"longitude":-70.98887494259449,"latitude":42.697599999999994},"managingOrganization":{"identifier":{"system":"https://github.com/synthetichealth/synthea","value":"f202fe9c-c1dd-30d5-805e-6a26904dbbce"},"display":"GEORGETOWN FAMILY MEDICINE LLC"}}
{"resourceType":"Location","id":"64a90b09-2cf7-3722-9dbd-3bdc117be42d","meta":{"profile":["http://hl7.org/fhir/us/core/StructureDefinition/us-core-location"]},"identifier":[{"system":"https://github.com/synthetichealth/synthea","value":"64a90b09-2cf7-3722-9dbd-3bdc117be42d"}],"status":"active","name":"BAYSTATE NOBLE HOSPITAL CORPORATION","telecom":[{"system":"phone","value":"4135682811"}],"address":{"line":["115 W SILVER ST"],"city":"WESTFIELD","state":"MA","postalCode":"010853628","country":"US"},"position":{"longitude":-72.75935246865802,"latitude":42.1178811},"managingOrganization":{"identifier":{"system":"https://github.com/synthetichealth/synthea","value":"88975fd9-b47e-3af6-af78-c58e1ecf0d5e"},"display":"BAYSTATE NOBLE HOSPITAL CORPORATION"}}
{"resourceType":"Location","id":"61d5132d-354c-3ff6-be04-5142f2e36b2f","meta":{"profile":["http://hl7.org/fhir/us/core/StructureDefinition/us-core-location"]},"identifier":[{"system":"https://github.com/synthetichealth/synthea","value":"61d5132d-354c-3ff6-be04-5142f2e36b2f"}],"status":"active","name":"BEACON HOSPICE LLC","telecom":[{"system":"phone","value":"6176172424"}],"address":{"line":["529 MAIN ST STE 126"],"city":"PLYMOUTH","state":"MA","postalCode":"023604842","country":"US"},"position":{"longitude":-70.7266525,"latitude":41.7664657},"managingOrganization":{"identifier":{"system":"https://github.com/synthetichealth/synthea","value":"fd938c9f-a355-3ec7-96f8-516240ea1ba2"},"display":"BEACON HOSPICE LLC"}}
{"resourceType":"Location","id":"098a521c-07c1-3f5e-ae66-0f84e613adb5","meta":{"profile":["http://hl7.org/fhir/us/core/StructureDefinition/us-core-location"]},"identifier":[{"system":"https://github.com/synthetichealth/synthea","value":"098a521c-07c1-3f5e-ae66-0f84e613adb5"}],"status":"active","name":"MONT MARIE REHABILITATION & HEALTHCARE CENTER","telecom":[{"system":"phone","value":"4135386050"}],"address":{"line":["36 LOWER WESTFIELD ROAD"],"city":"HOLYOKE","state":"MA","postalCode":"010402749","country":"US"},"position":{"longitude":-72.63488031242107,"latitude":42.16975305},"managingOrganization":{"identifier":{"system":"https://github.com/synthetichealth/synthea","value":"069b90f9-309b-35e4-b990-d1dbacb962cc"},"display":"MONT MARIE REHABILITATION & HEALTHCARE CENTER"}}
{"resourceType":"Location","id":"768666e6-7ff9-34cb-bb2c-e2e9da6bcfc2","meta":{"profile":["http://hl7.org/fhir/us/core/StructureDefinition/us-core-location"]},"identifier":[{"system":"https://github.com/synthetichealth/synthea","value":"768666e6-7ff9-34cb-bb2c-e2e9da6bcfc2"}],"status":"active","name":"D'YOUVILLE SENIOR CARE","telecom":[{"system":"phone","value":"9784545681"}],"address":{"line":["981 VARNUM AVENUE"],"city":"LOWELL","state":"MA","postalCode":"018541913","country":"US"},"position":{"longitude":-71.36487149058269,"latitude":42.64591185},"managingOrganization":{"identifier":{"system":"https://github.com/synthetichealth/synthea","value":"f438b8e0-d856-328a-b193-2b014fc4cb97"},"display":"D'YOUVILLE SENIOR CARE"}}
{"resourceType":"Location","id":"afdd231b-767f-3d5c-a8fe-607bcae9c2a4","meta":{"profile":["http://hl7.org/fhir/us/core/StructureDefinition/us-core-location"]},"identifier":[{"system":"https://github.com/synthetichealth/synthea","value":"afdd231b-767f-3d5c-a8fe-607bcae9c2a4"}],"status":"active","name":"BAYSTATE MEDICAL CENTER INC.","telecom":[{"system":"phone","value":"4137940000"}],"address":{"line":["759 CHESTNUT ST"],"city":"SPRINGFIELD","state":"MA","postalCode":"011991001","country":"US"},"position":{"longitude":-72.60300615153007,"latitude":42.121522049999996},"managingOrganization":{"identifier":{"system":"https://github.com/synthetichealth/synthea","value":"a855314b-4fb5-37fc-8015-5caa96c928b1"},"display":"BAYSTATE MEDICAL CENTER INC."}}
{"resourceType":"Location","id":"6830512d-430f-3fd5-bc77-aa8484ee0fa4","meta":{"profile":["http://hl7.org/fhir/us/core/StructureDefinition/us-core-location"]},"identifier":[{"system":"https://github.com/synthetichealth/synthea","value":"6830512d-430f-3fd5-bc77-aa8484ee0fa4"}],"status":"active","name":"SAINT ANNE'S HOSPITAL","telecom":[{"system":"phone","value":"5086745600"}],"address":{"line":["795 MIDDLE ST"],"city":"SWANSEA","state":"MA","postalCode":"027774114","country":"US"},"position":{"longitude":-71.208117,"latitude":41.730919},"managingOrganization":{"identifier":{"system":"https://github.com/synthetichealth/synthea","value":"48a6d3ab-50ef-349e-8945-2558a78f378e"},"display":"SAINT ANNE'S HOSPITAL"}}
{"resourceType":"Location","id":"d5ca5620-fc36-3bce-a03f-431ba095c617","meta":{"profile":["http://hl7.org/fhir/us/core/StructureDefinition/us-core-location"]},"identifier":[{"system":"https://github.com/synthetichealth/synthea","value":"d5ca5620-fc36-3bce-a03f-431ba095c617"}],"status":"active","name":"WOONSOCKET URGENT CARE PC","telecom":[{"system":"phone","value":"5083184466"}],"address":{"line":["1 WRENTHAM ST"],"city":"BELLINGHAM","state":"MA","postalCode":"020192532","country":"US"},"position":{"longitude":-71.48945118224057,"latitude":42.025037350000005},"managingOrganization":{"identifier":{"system":"https://github.com/synthetichealth/synthea","value":"7b7ce654-a413-37d1-9d34-97240c0ac580"},"display":"WOONSOCKET URGENT CARE PC"}}
{"resourceType":"Location","id":"3fdf1f75-e26b-3315-9373-6d3bb24dd9c4","meta":{"profile":["http://hl7.org/fhir/us/core/StructureDefinition/us-core-location"]},"identifier":[{"system":"https://github.com/synthetichealth/synthea","value":"3fdf1f75-e26b-3315-9373-6d3bb24dd9c4"}],"status":"active","name":"BERKSHIRE PLACE","telecom":[{"system":"phone","value":"4134454056"}],"address":{"line":["290 SOUTH STREET"],"city":"PITTSFIELD","state":"MA","postalCode":"012016824","country":"US"},"position":{"longitude":-73.25677853480586,"latitude":42.440485002637104},"managingOrganization":{"identifier":{"system":"https://github.com/synthetichealth/synthea","value":"95b01a7c-e16a-37d4-b354-c404baa00203"},"display":"BERKSHIRE PLACE"}}
{"resourceType":"Location","id":"c64ea29a-9c02-31a6-9721-2c245c1c085d","meta":{"profile":["http://hl7.org/fhir/us/core/StructureDefinition/us-core-location"]},"identifier":[{"system":"https://github.com/synthetichealth/synthea","value":"c64ea29a-9c02-31a6-9721-2c245c1c085d"}],"status":"active","name":"BETH ISRAEL DEACONESS HOSPITAL PLYMOUTH INC","telecom":[{"system":"phone","value":"5087462000"}],"address":{"line":["275 SANDWICH ST"],"city":"PLYMOUTH","state":"MA","postalCode":"023602183","country":"US"},"position":{"longitude":-70.6455366462985,"latitude":41.94186605},"managingOrganization":{"identifier":{"system":"https://github.com/synthetichealth/synthea","value":"7b20d1c4-c56b-3647-801c-5e4e13679073"},"display":"BETH ISRAEL DEACONESS HOSPITAL PLYMOUTH INC"}}
{"resourceType":"Location","id":"61af5772-8101-30ef-be76-63a3d2d41e0b","meta":{"profile":["http://hl7.org/fhir/us/core/StructureDefinition/us-core-location"]},"identifier":[{"system":"https://github.com/synthetichealth/synthea","value":"61af5772-8101-30ef-be76-63a3d2d41e0b"}],"status":"active","name":"HOSPICE OF NASHOBA NURSING SERVICE","telecom":[{"system":"phone","value":"9784256675"}],"address":{"line":["3 PATTERSON ROAD, SUITE 3"],"city":"SHIRLEY","state":"MA","postalCode":"014642907","country":"US"},"position":{"longitude":-71.62383665745185,"latitude":42.552462649999995},"managingOrganization":{"identifier":{"system":"https://github.com/synthetichealth/synthea","value":"df852cb2-9fe0-3c90-87ac-46e5f980ee3b"},"display":"HOSPICE OF NASHOBA NURSING SERVICE"}}
{"resourceType":"Location","id":"c5de81bc-8f47-357b-af0b-ca4321dcab24","meta":{"profile":["http://hl7.org/fhir/us/core/StructureDefinition/us-core-location"]},"identifier":[{"system":"https://github.com/synthetichealth/synthea","value":"c5de81bc-8f47-357b-af0b-ca4321dcab24"}],"status":"active","name":"HALLMARK HEALTH URGENT CARE PHYSICIANS LLC","telecom":[{"system":"phone","value":"7812801699"}],"address":{"line":["30 NEW CROSSING RD"],"city":"READING","state":"MA","postalCode":"018673270","country":"US"},"position":{"longitude":-71.0959083715027,"latitude":42.51809619399502},"managingOrganization":{"identifier":{"system":"https://github.com/synthetichealth/synthea","value":"3e97ce4f-3ad7-3cea-883f-e2bb4ca89d83"},"display":"HALLMARK HEALTH URGENT CARE PHYSICIANS LLC"}}
{"resourceType":"Location","id":"4c30dd4b-68eb-3bab-88df-7d4515b6a715","meta":{"profile":["http://hl7.org/fhir/us/core/StructureDefinition/us-core-location"]},"identifier":[{"system":"https://github.com/synthetichealth/synthea","value":"4c30dd4b-68eb-3bab-88df-7d4515b6a715"}],"status":"active","name":"DANVERS FAMILY DOCTORS PC","telecom":[{"system":"phone","value":"9787626262"}],"address":{"line":["140 COMMONWEALTH AVE STE 202"],"city":"DANVERS","state":"MA","postalCode":"019233625","country":"US"},"position":{"longitude":-70.94443165548033,"latitude":42.5524742},"managingOrganization":{"identifier":{"system":"https://github.com/synthetichealth/synthea","value":"e982819a-87b3-3124-a0f2-85f8afcc7731"},"display":"DANVERS FAMILY DOCTORS PC"}}
{"resourceType":"Location","id":"6a03021e-9fd9-328d-ae3f-8b631b8fe09c","meta":{"profile":["http://hl7.org/fhir/us/core/StructureDefinition/us-core-location"]},"identifier":[{"system":"https://github.com/synthetichealth/synthea","value":"6a03021e-9fd9-328d-ae3f-8b631b8fe09c"}],"status":"active","name":"BOURNE MANOR EXTENDED CARE FACILITY","telecom":[{"system":"phone","value":"5087598880"}],"address":{"line":["146 MAC ARTHUR BOULEVARD"],"city":"BOURNE","state":"MA","postalCode":"025323902","country":"US"},"position":{"longitude":-70.5989196,"latitude":41.7412166},"managingOrganization":{"identifier":{"system":"https://github.com/synthetichealth/synthea","value":"c60fc3df-9dbd-3f31-a456-41c84490266f"},"display":"BOURNE MANOR EXTENDED CARE FACILITY"}}
{"resourceType":"Location","id":"ab1e9a87-beb2-38c7-90a8-da5c3a9d084d","meta":{"profile":["http://hl7.org/fhir/us/core/StructureDefinition/us-core-location"]},"identifier":[{"system":"https://github.com/synthetichealth/synthea","value":"ab1e9a87-beb2-38c7-90a8-da5c3a9d084d"}],"status":"active","name":"MARISTHILL NURSING & REHABILITATION CENTER","telecom":[{"system":"phone","value":"7818930240"}],"address":{"line":["66 NEWTON STREET"],"city":"WALTHAM","state":"MA","postalCode":"024536058","country":"US"},"position":{"longitude":-71.22789736306842,"latitude":42.3746705},"managingOrganization":{"identifier":{"system":"https://github.com/synthetichealth/synthea","value":"c0132cf6-1703-3aad-89b4-cc2f2bbc123e"},"display":"MARISTHILL NURSING & REHABILITATION CENTER"}}
{"resourceType":"Location","id":"4e692a53-6fc3-3756-a2ae-c053f531e812","meta":{"profile":["http://hl7.org/fhir/us/core/StructureDefinition/us-core-location"]},"identifier":[{"system":"https://github.com/synthetichealth/synthea","value":"4e692a53-6fc3-3756-a2ae-c053f531e812"}],"status":"active","name":"PRIMARY CARE MEDICINE AND PEDIATRICS, LLC","telecom":[{"system":"phone","value":"4135621650"}],"address":{"line":["94 N ELM ST"],"city":"WESTFIELD","state":"MA","postalCode":"010852917","country":"US"},"position":{"longitude":-72.7436679,"latitude":42.1322823},"managingOrganization":{"identifier":{"system":"https://github.com/synthetichealth/synthea","value":"c4e5b33c-17b8-3f51-a8ba-a327d54e642a"},"display":"PRIMARY CARE MEDICINE AND PEDIATRICS, LLC"}}
{"resourceType":"Location","id":"bc896c80-7f64-3a49-8c4c-22890b3cc089","meta":{"profile":["http://hl7.org/fhir/us/core/StructureDefinition/us-core-location"]},"identifier":[{"system":"https://github.com/synthetichealth/synthea","value":"bc896c80-7f64-3a49-8c4c-22890b3cc089"}],"status":"active","name":"BRIGHAM & WOMENS HOSPITAL INC","telecom":[{"system":"phone","value":"6177325500"}],"address":{"line":["75 FRANCIS ST"],"city":"WEST BRIDGEWATER","state":"MA","postalCode":"023791542","country":"US"},"position":{"longitude":-71.019004,"latitude":42.0219112},"managingOrganization":{"identifier":{"system":"https://github.com/synthetichealth/synthea","value":"51370692-6296-3150-8672-559fc73f964f"},"display":"BRIGHAM & WOMENS HOSPITAL INC"}}
{"resourceType":"Location","id":"ab8b3649-7a31-32ee-ae55-ec841f2766f6","meta":{"profile":["http://hl7.org/fhir/us/core/StructureDefinition/us-core-location"]},"identifier":[{"system":"https://github.com/synthetichealth/synthea","value":"ab8b3649-7a31-32ee-ae55-ec841f2766f6"}],"status":"active","name":"INTEGRATIVE MEDICINE AND HOLISTIC WELLNESS CENTERS LLC","telecom":[{"system":"phone","value":"5087900606"}],"address":{"line":["677 W MAIN ST"],"city":"HYANNIS","state":"MA","postalCode":"026013493","country":"US"},"position":{"longitude":-70.32027525205335,"latitude":41.652312699999996},"managingOrganization":{"identifier":{"system":"https://github.com/synthetichealth/synthea","value":"10dcd91e-6eda-385b-bafb-d5e1ae92dc34"},"display":"INTEGRATIVE MEDICINE AND HOLISTIC WELLNESS CENTERS LLC"}}
{"resourceType":"Location","id":"b8d5db86-900f-3365-acef-a4b1e86f633c","meta":{"profile":["http://hl7.org/fhir/us/core/StructureDefinition/us-core-location"]},"identifier":[{"system":"https://github.com/synthetichealth/synthea","value":"b8d5db86-900f-3365-acef-a4b1e86f633c"}],"status":"active","name":"MASSACHUSETTS EYE AND EAR INFIRMARY -","telecom":[{"system":"phone","value":"6175733089"}],"address":{"line":["243 CHARLES ST"],"city":"STONEHAM","state":"MA","postalCode":"021803559","country":"US"},"position":{"longitude":-71.0924311,"latitude":42.4814675},"managingOrganization":{"identifier":{"system":"https://github.com/synthetichealth/synthea","value":"cdc87240-38e9-36f8-959b-706642e01e11"},"display":"MASSACHUSETTS EYE AND EAR INFIRMARY -"}}
{"resourceType":"Location","id":"f36356f1-213d-39a7-853c-3d64945e171a","meta":{"profile":["http://hl7.org/fhir/us/core/StructureDefinition/us-core-location"]},"identifier":[{"system":"https://github.com/synthetichealth/synthea","value":"f36356f1-213d-39a7-853c-3d64945e171a"}],"status":"active","name":"DEVENS TREATMENT & RECOVERY CENTER LLC","telecom":[{"system":"phone","value":"9786155200"}],"address":{"line":["85 PATTON RD"],"city":"DEVENS","state":"MA","postalCode":"014344401","country":"US"},"position":{"longitude":-71.61505519305638,"latitude":42.5304204},"managingOrganization":{"identifier":{"system":"https://github.com/synthetichealth/synthea","value":"b5b380d2-df21-3389-abf0-08551c7e1f2d"},"display":"DEVENS TREATMENT & RECOVERY CENTER LLC"}}
{"resourceType":"Location","id":"37062c80-1ebb-3ece-ab5e-af0bc290c441","meta":{"profile":["http://hl7.org/fhir/us/core/StructureDefinition/us-core-location"]},"identifier":[{"system":"https://github.com/synthetichealth/synthea","value":"37062c80-1ebb-3ece-ab5e-af0bc290c441"}],"status":"active","name":"TEWKSBURY HOSPITAL","telecom":[{"system":"phone","value":"9788517321"}],"address":{"line":["365 EAST ST"],"city":"TEWKSBURY","state":"MA","postalCode":"018761950","country":"US"},"position":{"longitude":-71.2180803,"latitude":42.6069472},"managingOrganization":{"identifier":{"system":"https://github.com/synthetichealth/synthea","value":"2836d9ac-c6a6-39d1-8f13-fdf0fc8928f4"},"display":"TEWKSBURY HOSPITAL"}}
{"resourceType":"Location","id":"55d9d4ba-5a95-36b0-a6b3-41e602cf45c8","meta":{"profile":["http://hl7.org/fhir/us/core/StructureDefinition/us-core-location"]},"identifier":[{"system":"https://github.com/synthetichealth/synthea","value":"55d9d4ba-5a95-36b0-a6b3-41e602cf45c8"}],"status":"active","name":"HARBOR HEALTH SERVICES INC","telecom":[{"system":"phone","value":"5087780300"}],"address":{"line":["735 ATTUCKS LN"],"city":"HYANNIS","state":"MA","postalCode":"026011867","country":"US"},"position":{"longitude":-70.29768515601289,"latitude":41.6747631},"managingOrganization":{"identifier":{"system":"https://github.com/synthetichealth/synthea","value":"f22bc2ac-f8bd-3f9f-9a40-93db37639d3f"},"display":"HARBOR HEALTH SERVICES INC"}}
{"resourceType":"Location","id":"3ce5928b-30d4-3748-868a-a223c0fba93c","meta":{"profile":["http://hl7.org/fhir/us/core/StructureDefinition/us-core-location"]},"identifier":[{"system":"https://github.com/synthetichealth/synthea","value":"3ce5928b-30d4-3748-868a-a223c0fba93c"}],"status":"active","name":"SOUTH SHORE HOSPITAL INC.","telecom":[{"system":"phone","value":"7813408000"}],"address":{"line":["55 FOGG ROAD"],"city":"WEYMOUTH","state":"MA","postalCode":"021893141","country":"US"},"position":{"longitude":-70.9539153674405,"latitude":42.175539799999996},"managingOrganization":{"identifier":{"system":"https://github.com/synthetichealth/synthea","value":"e2eab39c-5195-34aa-b35f-e89e37cfed01"},"display":"SOUTH SHORE HOSPITAL INC."}}
{"resourceType":"Location","id":"de2d3b81-14b0-3845-a7a8-3df1fa58cb2a","meta":{"profile":["http://hl7.org/fhir/us/core/StructureDefinition/us-core-location"]},"identifier":[{"system":"https://github.com/synthetichealth/synthea","value":"de2d3b81-14b0-3845-a7a8-3df1fa58cb2a"}],"status":"active","name":"GREENWOOD NURSING & REHABILITATION CENTER","telecom":[{"system":"phone","value":"7812460211"}],"address":{"line":["90 GREENWOOD STREET"],"city":"WAKEFIELD","state":"MA","postalCode":"018804039","country":"US"},"position":{"longitude":-71.06922169005762,"latitude":42.476321150000004},"managingOrganization":{"identifier":{"system":"https://github.com/synthetichealth/synthea","value":"4fa8411f-42f8-3353-8947-bf15254c9dee"},"display":"GREENWOOD NURSING & REHABILITATION CENTER"}}
{"resourceType":"Location","id":"45f3d9de-5847-378a-a0ba-794b2aa78347","meta":{"profile":["http://hl7.org/fhir/us/core/StructureDefinition/us-core-location"]},"identifier":[{"system":"https://github.com/synthetichealth/synthea","value":"45f3d9de-5847-378a-a0ba-794b2aa78347"}],"status":"active","name":"HORIZON HOME CARE, LLC","telecom":[{"system":"phone","value":"9788517775"}],"address":{"line":["2314 MAIN STREET"],"city":"TEWKSBURY","state":"MA","postalCode":"018763128","country":"US"},"position":{"longitude":-71.19367180835906,"latitude":42.58023655},"managingOrganization":{"identifier":{"system":"https://github.com/synthetichealth/synthea","value":"a977feef-f585-3fa8-8deb-7e60fc2cab30"},"display":"HORIZON HOME CARE, LLC"}}
{"resourceType":"Location","id":"833b028d-2c8d-31e8-b81a-cfa7f9c587b8","meta":{"profile":["http://hl7.org/fhir/us/core/StructureDefinition/us-core-location"]},"identifier":[{"system":"https://github.com/synthetichealth/synthea","value":"833b028d-2c8d-31e8-b81a-cfa7f9c587b8"}],"status":"active","name":"750 WOBURN STREET OPERATING COMPANY, LLC","telecom":[{"system":"phone","value":"9789880888"}],"address":{"line":["750 WOBURN STREET"],"city":"WILMINGTON","state":"MA","postalCode":"018873480","country":"US"},"position":{"longitude":-71.14953004087923,"latitude":42.5346051},"managingOrganization":{"identifier":{"system":"https://github.com/synthetichealth/synthea","value":"22b57e3f-4143-33e6-abb9-e6ff074f1c46"},"display":"750 WOBURN STREET OPERATING COMPANY, LLC"}}
{"resourceType":"Location","id":"e9cf4f89-9392-3655-828f-418d597de57c","meta":{"profile":["http://hl7.org/fhir/us/core/StructureDefinition/us-core-location"]},"identifier":[{"system":"https://github.com/synthetichealth/synthea","value":"e9cf4f89-9392-3655-828f-418d597de57c"}],"status":"active","name":"CIRCLE HEALTH URGENT CARE LLC","telecom":[{"system":"phone","value":"9783230302"}],"address":{"line":["198 LITTLETON RD"],"city":"WESTFORD","state":"MA","postalCode":"018863429","country":"US"},"position":{"longitude":-71.42620615382347,"latitude":42.564282},"managingOrganization":{"identifier":{"system":"https://github.com/synthetichealth/synthea","value":"1de7e7d9-9a7a-3a3f-bf4c-b4de450711f2"},"display":"CIRCLE HEALTH URGENT CARE LLC"}}
{"resourceType":"Location","id":"de493cdb-173c-3c61-86f5-bbe3edf19dab","meta":{"profile":["http://hl7.org/fhir/us/core/StructureDefinition/us-core-location"]},"identifier":[{"system":"https://github.com/synthetichealth/synthea","value":"de493cdb-173c-3c61-86f5-bbe3edf19dab"}],"status":"active","name":"KINDRED AT HOME","telecom":[{"system":"phone","value":"4137331132"}],"address":{"line":["2069 ROOSEVELT AVENUE"],"city":"WEST SPRINGFIELD","state":"MA","postalCode":"010892595","country":"US"},"position":{"longitude":-72.6213712,"latitude":42.105237},"managingOrganization":{"identifier":{"system":"https://github.com/synthetichealth/synthea","value":"05cc5056-7af4-3afb-9a5a-d7a1c23a2509"},"display":"KINDRED AT HOME"}}
{"resourceType":"Location","id":"373e6267-210e-35f3-956f-70c9a89c5f57","meta":{"profile":["http://hl7.org/fhir/us/core/StructureDefinition/us-core-location"]},"identifier":[{"system":"https://github.com/synthetichealth/synthea","value":"373e6267-210e-35f3-956f-70c9a89c5f57"}],"status":"active","name":"WELLNESS ON WHEELS,PC","telecom":[{"system":"phone","value":"5083164141"}],"address":{"line":["55 N WASHINGTON ST"],"city":"NORTH ATTLEBORO","state":"MA","postalCode":"027601607","country":"US"},"position":{"longitude":-71.332241,"latitude":41.983529},"managingOrganization":{"identifier":{"system":"https://github.com/synthetichealth/synthea","value":"4705a8fd-19cd-32c1-8b3e-34bcfe84d0bd"},"display":"WELLNESS ON WHEELS,PC"}}
{"resourceType":"Location","id":"92b97a14-2913-30e3-99ba-39c987e4a9f6","meta":{"profile":["http://hl7.org/fhir/us/core/StructureDefinition/us-core-location"]},"identifier":[{"system":"https://github.com/synthetichealth/synthea","value":"92b97a14-2913-30e3-99ba-39c987e4a9f6"}],"status":"active","name":"CAPE COD HOSPITAL INC","telecom":[{"system":"phone","value":"5087711800"}],"address":{"line":["27 PARK ST"],"city":"HYANNIS","state":"MA","postalCode":"026015230","country":"US"},"position":{"longitude":-70.27352219234834,"latitude":41.65363635},"managingOrganization":{"identifier":{"system":"https://github.com/synthetichealth/synthea","value":"497f39dd-280e-3d58-af5b-c5e3a3a09b10"},"display":"CAPE COD HOSPITAL INC"}}
{"resourceType":"Location","id":"3d6f958a-1d16-3cdd-97f6-a7fc9d5d5418","meta":{"profile":["http://hl7.org/fhir/us/core/StructureDefinition/us-core-location"]},"identifier":[{"system":"https://github.com/synthetichealth/synthea","value":"3d6f958a-1d16-3cdd-97f6-a7fc9d5d5418"}],"status":"active","name":"OVERLOOK MASONIC HEALTH CENTER","telecom":[{"system":"phone","value":"5082487344"}],"address":{"line":["88 MASONIC HOME ROAD"],"city":"CHARLTON","state":"MA","postalCode":"015071394","country":"US"},"position":{"longitude":-71.9782681,"latitude":42.1389039},"managingOrganization":{"identifier":{"system":"https://github.com/synthetichealth/synthea","value":"0d7fd824-1c7b-3f8b-a662-f6c2005e82e1"},"display":"OVERLOOK MASONIC HEALTH CENTER"}}
{"resourceType":"Location","id":"0e770552-19ec-3370-bd5d-1dd7e0aba0f1","meta":{"profile":["http://hl7.org/fhir/us/core/StructureDefinition/us-core-location"]},"identifier":[{"system":"https://github.com/synthetichealth/synthea","value":"0e770552-19ec-3370-bd5d-1dd7e0aba0f1"}],"status":"active","name":"LIFE CARE CENTER OF ATTLEBORO","telecom":[{"system":"phone","value":"5082224182"}],"address":{"line":["969 PARK STREET"],"city":"ATTLEBORO","state":"MA","postalCode":"027035115","country":"US"},"position":{"longitude":-71.2611303145582,"latitude":41.9266899},"managingOrganization":{"identifier":{"system":"https://github.com/synthetichealth/synthea","value":"accb8cdd-6560-3fef-b0a6-f12c3295026a"},"display":"LIFE CARE CENTER OF ATTLEBORO"}}
{"resourceType":"Location","id":"c9417148-bdee-3a02-bd00-01d6b6c823d8","meta":{"profile":["http://hl7.org/fhir/us/core/StructureDefinition/us-core-location"]},"identifier":[{"system":"https://github.com/synthetichealth/synthea","value":"c9417148-bdee-3a02-bd00-01d6b6c823d8"}],"status":"active","name":"ANNA JAQUES HOSPITAL SUBACUTE UNIT","telecom":[{"system":"phone","value":"9784631056"}],"address":{"line":["25 HIGHLAND AVENUE"],"city":"NEWBURYPORT","state":"MA","postalCode":"019503872","country":"US"},"position":{"longitude":-70.89091645747592,"latitude":42.81369325},"managingOrganization":{"identifier":{"system":"https://github.com/synthetichealth/synthea","value":"18a96051-91f4-3cba-af96-056ea14dfee0"},"display":"ANNA JAQUES HOSPITAL SUBACUTE UNIT"}}
{"resourceType":"Location","id":"9406350e-61f7-3bb6-a679-f0fc8002db6a","meta":{"profile":["http://hl7.org/fhir/us/core/StructureDefinition/us-core-location"]},"identifier":[{"system":"https://github.com/synthetichealth/synthea","value":"9406350e-61f7-3bb6-a679-f0fc8002db6a"}],"status":"active","name":"ODD FELLOWS HOME OF MASSACHUSETTS","telecom":[{"system":"phone","value":"5088536687"}],"address":{"line":["104 RANDOLPH ROAD"],"city":"WORCESTER","state":"MA","postalCode":"016062465","country":"US"},"position":{"longitude":-71.79838133819244,"latitude":42.29955605000001},"managingOrganization":{"identifier":{"system":"https://github.com/synthetichealth/synthea","value":"9d41e4fc-9507-3ddb-82ad-966046fca031"},"display":"ODD FELLOWS HOME OF MASSACHUSETTS"}}
{"resourceType":"Location","id":"d9dd2699-ec1b-3b77-8b83-33d437131ded","meta":{"profile":["http://hl7.org/fhir/us/core/StructureDefinition/us-core-location"]},"identifier":[{"system":"https://github.com/synthetichealth/synthea","value":"d9dd2699-ec1b-3b77-8b83-33d437131ded"}],"status":"active","name":"BERKSHIRE MEDICAL CENTER INC - 1","telecom":[{"system":"phone","value":"4134472000"}],"address":{"line":["725 NORTH ST"],"city":"PITTSFIELD","state":"MA","postalCode":"012015493","country":"US"},"position":{"longitude":-73.2492795834909,"latitude":42.4600752},"managingOrganization":{"identifier":{"system":"https://github.com/synthetichealth/synthea","value":"5b0cd0a0-f277-3a66-bee6-d64b5be4a3f5"},"display":"BERKSHIRE MEDICAL CENTER INC - 1"}}
{"resourceType":"Location","id":"2632b86f-9d01-308f-a258-bd7d7420daf5","meta":{"profile":["http://hl7.org/fhir/us/core/StructureDefinition/us-core-location"]},"identifier":[{"system":"https://github.com/synthetichealth/synthea","value":"2632b86f-9d01-308f-a258-bd7d7420daf5"}],"status":"active","name":"GARDEN STATE HEALTHCARE ASSOCIATES LLC","telecom":[{"system":"phone","value":"2018587394"}],"address":{"line":["29 E 29TH ST"],"city":"WEST NEWBURY","state":"MA","postalCode":"019854201","country":"US"},"position":{"longitude":-70.989778,"latitude":42.8014795},"managingOrganization":{"identifier":{"system":"https://github.com/synthetichealth/synthea","value":"18b1bb7e-2f93-3253-a7ae-d19c13ffeaa1"},"display":"GARDEN STATE HEALTHCARE ASSOCIATES LLC"}}
{"resourceType":"Location","id":"6e394cee-dc9e-347a-9da1-7de7c803bda6","meta":{"profile":["http://hl7.org/fhir/us/core/StructureDefinition/us-core-location"]},"identifier":[{"system":"https://github.com/synthetichealth/synthea","value":"6e394cee-dc9e-347a-9da1-7de7c803bda6"}],"status":"active","name":"CHARLES RIVER COMMUNITY HEALTH, INC","telecom":[{"system":"phone","value":"6177830500"}],"address":{"line":["43 FOUNDRY AVE"],"city":"WALTHAM","state":"MA","postalCode":"024538313","country":"US"},"position":{"longitude":-71.21908334877376,"latitude":42.37050535},"managingOrganization":{"identifier":{"system":"https://github.com/synthetichealth/synthea","value":"67d2f85b-ddc7-3ed0-b90b-6fa5b7b8358a"},"display":"CHARLES RIVER COMMUNITY HEALTH, INC"}}
{"resourceType":"Location","id":"57ab8354-fdf6-38e1-9ea9-7dbda0cac39a","meta":{"profile":["http://hl7.org/fhir/us/core/StructureDefinition/us-core-location"]},"identifier":[{"system":"https://github.com/synthetichealth/synthea","value":"57ab8354-fdf6-38e1-9ea9-7dbda0cac39a"}],"status":"active","name":"FAMILY MEDICINE ASSOCIATES","telecom":[{"system":"phone","value":"4135625173"}],"address":{"line":["75 SPRINGFIELD RD"],"city":"WESTFIELD","state":"MA","postalCode":"010851832","country":"US"},"position":{"longitude":-72.71189899299209,"latitude":42.111428849999996},"managingOrganization":{"identifier":{"system":"https://github.com/synthetichealth/synthea","value":"1d45436f-15a9-326e-a452-2e9ffc9fc5e5"},"display":"FAMILY MEDICINE ASSOCIATES"}}
{"resourceType":"Location","id":"5c001c04-11e5-3efb-aa44-b7214d7b87f5","meta":{"profile":["http://hl7.org/fhir/us/core/StructureDefinition/us-core-location"]},"identifier":[{"system":"https://github.com/synthetichealth/synthea","value":"5c001c04-11e5-3efb-aa44-b7214d7b87f5"}],"status":"active","name":"BARRINGTON URGENT CARE PC","telecom":[{"system":"phone","value":"4014337550"}],"address":{"line":["381 WICKENDEN ST"],"city":"ATTLEBORO","state":"MA","postalCode":"027032247","country":"US"},"position":{"longitude":-71.2806515,"latitude":41.9438129},"managingOrganization":{"identifier":{"system":"https://github.com/synthetichealth/synthea","value":"1853aeef-5897-326a-80d6-aa4b0459eb6d"},"display":"BARRINGTON URGENT CARE PC"}}
{"resourceType":"Location","id":"6e47dfc0-4d13-3e68-82f1-44d75375b089","meta":{"profile":["http://hl7.org/fhir/us/core/StructureDefinition/us-core-location"]},"identifier":[{"system":"https://github.com/synthetichealth/synthea","value":"6e47dfc0-4d13-3e68-82f1-44d75375b089"}],"status":"active","name":"CHELSEA JEWISH VISITING NURSE AGENCY","telecom":[{"system":"phone","value":"6178870826"}],"address":{"line":["123 CAPTAIN'S ROW"],"city":"CHELSEA","state":"MA","postalCode":"021504019","country":"US"},"position":{"longitude":-71.0328284,"latitude":42.3917638},"managingOrganization":{"identifier":{"system":"https://github.com/synthetichealth/synthea","value":"22fa6d28-92b6-3446-a388-f5aba50debaf"},"display":"CHELSEA JEWISH VISITING NURSE AGENCY"}}
{"resourceType":"Location","id":"e27b66f2-8695-3f8f-9077-e5f4e0cc56c5","meta":{"profile":["http://hl7.org/fhir/us/core/StructureDefinition/us-core-location"]},"identifier":[{"system":"https://github.com/synthetichealth/synthea","value":"e27b66f2-8695-3f8f-9077-e5f4e0cc56c5"}],"status":"active","name":"HANOVER FAMILY HEALTH & URGENT CARE PC","telecom":[{"system":"phone","value":"7818290895"}],"address":{"line":["1399 WASHINGTON ST"],"city":"HANOVER","state":"MA","postalCode":"023391653","country":"US"},"position":{"longitude":-70.8440854,"latitude":42.1441354},"managingOrganization":{"identifier":{"system":"https://github.com/synthetichealth/synthea","value":"2ca615f3-87f7-3283-a447-d919a883b676"},"display":"HANOVER FAMILY HEALTH & URGENT CARE PC"}}
{"resourceType":"Location","id":"e760200e-ec7d-350d-bebe-510cef1e8e66","meta":{"profile":["http://hl7.org/fhir/us/core/StructureDefinition/us-core-location"]},"identifier":[{"system":"https://github.com/synthetichealth/synthea","value":"e760200e-ec7d-350d-bebe-510cef1e8e66"}],"status":"active","name":"COMMUNITY HEALTH CENTER OF CAPE COD, INC.","telecom":[{"system":"phone","value":"5084777090"}],"address":{"line":["123 WATERHOUSE ROAD"],"city":"BOURNE","state":"MA","postalCode":"025323890","country":"US"},"position":{"longitude":-70.58506829999999,"latitude":41.72840155},"managingOrganization":{"identifier":{"system":"https://github.com/synthetichealth/synthea","value":"0583e4f7-f1c2-3100-8e0c-d0decc7ef261"},"display":"COMMUNITY HEALTH CENTER OF CAPE COD, INC."}}
{"resourceType":"Location","id":"56cc2b15-93e2-3916-9196-0dea57d97413","meta":{"profile":["http://hl7.org/fhir/us/core/StructureDefinition/us-core-location"]},"identifier":[{"system":"https://github.com/synthetichealth/synthea","value":"56cc2b15-93e2-3916-9196-0dea57d97413"}],"status":"active","name":"STONY BROOK PRIMARY CARE LLC","telecom":[{"system":"phone","value":"9784469850"}],"address":{"line":["20 RESEARCH PL"],"city":"NORTH CHELMSFORD","state":"MA","postalCode":"018632455","country":"US"},"position":{"longitude":-71.3828403,"latitude":42.6389798},"managingOrganization":{"identifier":{"system":"https://github.com/synthetichealth/synthea","value":"6450f09c-28fc-3815-abfb-62056b72e508"},"display":"STONY BROOK PRIMARY CARE LLC"}}
{"resourceType":"Location","id":"97b5ee7a-cffc-3339-b0ca-58fca6d58f3a","meta":{"profile":["http://hl7.org/fhir/us/core/StructureDefinition/us-core-location"]},"identifier":[{"system":"https://github.com/synthetichealth/synthea","value":"97b5ee7a-cffc-3339-b0ca-58fca6d58f3a"}],"status":"active","name":"PODIATRY HEALTHCARE P.C.","telecom":[{"system":"phone","value":"9783048403"}],"address":{"line":["480 MAPLE ST"],"city":"DANVERS","state":"MA","postalCode":"019234065","country":"US"},"position":{"longitude":-70.97197467750539,"latitude":42.584178050000006},"managingOrganization":{"identifier":{"system":"https://github.com/synthetichealth/synthea","value":"0be0e035-8dad-387e-bbdd-a5a469c4311f"},"display":"PODIATRY HEALTHCARE P.C."}}
{"resourceType":"Location","id":"ecdc5c72-4653-3d75-90c7-ae711c69d0c6","meta":{"profile":["http://hl7.org/fhir/us/core/StructureDefinition/us-core-location"]},"identifier":[{"system":"https://github.com/synthetichealth/synthea","value":"ecdc5c72-4653-3d75-90c7-ae711c69d0c6"}],"status":"active","name":"NEW BEDFORD INTERNAL MEDICINE & GERIATRICS, LLC","telecom":[{"system":"phone","value":"5089845671"}],"address":{"line":["726 COUNTY ST"],"city":"NORTH DARTMOUTH","state":"MA","postalCode":"027473603","country":"US"},"position":{"longitude":-70.9703171,"latitude":41.6389926},"managingOrganization":{"identifier":{"system":"https://github.com/synthetichealth/synthea","value":"3f12ebb4-e03c-3453-88d2-4fc9682383df"},"display":"NEW BEDFORD INTERNAL MEDICINE & GERIATRICS, LLC"}}
{"resourceType":"Location","id":"4e165c5c-0402-33cb-8a45-2d8ce9c12fa8","meta":{"profile":["http://hl7.org/fhir/us/core/StructureDefinition/us-core-location"]},"identifier":[{"system":"https://github.com/synthetichealth/synthea","value":"4e165c5c-0402-33cb-8a45-2d8ce9c12fa8"}],"status":"active","name":"ALLIANCE HEALTH AT ROSEWOOD","telecom":[{"system":"phone","value":"9785358700"}],"address":{"line":["22 JOHNSON STREET"],"city":"PEABODY","state":"MA","postalCode":"019602311","country":"US"},"position":{"longitude":-70.99288129112277,"latitude":42.54644385},"managingOrganization":{"identifier":{"system":"https://github.com/synthetichealth/synthea","value":"8ec2ca51-abb4-35dd-b90f-6c6aad6d2124"},"display":"ALLIANCE HEALTH AT ROSEWOOD"}}
{"resourceType":"Location","id":"7c65d7f4-b5f2-3817-9d9a-0288bda3e137","meta":{"profile":["http://hl7.org/fhir/us/core/StructureDefinition/us-core-location"]},"identifier":[{"system":"https://github.com/synthetichealth/synthea","value":"7c65d7f4-b5f2-3817-9d9a-0288bda3e137"}],"status":"active","name":"NORTHEAST PROFESSIONAL REGISTRY OF NURSES, INC.","telecom":[{"system":"phone","value":"9789212615"}],"address":{"line":["600 CUMMINGS CTR STE 270X"],"city":"WOBURN","state":"MA","postalCode":"018013200","country":"US"},"position":{"longitude":-71.1522766,"latitude":42.4792618},"managingOrganization":{"identifier":{"system":"https://github.com/synthetichealth/synthea","value":"ea468462-3080-302e-b405-9127a396c310"},"display":"NORTHEAST PROFESSIONAL REGISTRY OF NURSES, INC."}}
{"resourceType":"Location","id":"9fb9c6a4-5b94-3606-8d25-aa5fec996a31","meta":{"profile":["http://hl7.org/fhir/us/core/StructureDefinition/us-core-location"]},"identifier":[{"system":"https://github.com/synthetichealth/synthea","value":"9fb9c6a4-5b94-3606-8d25-aa5fec996a31"}],"status":"active","name":"PIONEER VALLEY INTERNAL MEDICINE, PC","telecom":[{"system":"phone","value":"4135842333"}],"address":{"line":["15 STRAW AVE"],"city":"FLORENCE","state":"MA","postalCode":"010621491","country":"US"},"position":{"longitude":-72.663286,"latitude":42.335654},"managingOrganization":{"identifier":{"system":"https://github.com/synthetichealth/synthea","value":"a35fd733-dc1a-33f0-a308-292ff5581287"},"display":"PIONEER VALLEY INTERNAL MEDICINE, PC"}}
{"resourceType":"Location","id":"f06c11df-7259-3ece-9845-281db0ad32f4","meta":{"profile":["http://hl7.org/fhir/us/core/StructureDefinition/us-core-location"]},"identifier":[{"system":"https://github.com/synthetichealth/synthea","value":"f06c11df-7259-3ece-9845-281db0ad32f4"}],"status":"active","name":"TENDER LOVING CARE HEALTH CARE SERVICES OF NEW ENGLAND, LLC","telecom":[{"system":"phone","value":"5083837000"}],"address":{"line":["200 NICKERSON RD STE 110"],"city":"PLYMOUTH","state":"MA","postalCode":"023602480","country":"US"},"position":{"longitude":-70.632075,"latitude":41.75001},"managingOrganization":{"identifier":{"system":"https://github.com/synthetichealth/synthea","value":"51e96f40-2058-378a-b3bd-d83c50d5cbcb"},"display":"TENDER LOVING CARE HEALTH CARE SERVICES OF NEW ENGLAND, LLC"}}
{"resourceType":"Location","id":"cfb48cb5-1b3b-371f-a47b-fc320c3c4b8a","meta":{"profile":["http://hl7.org/fhir/us/core/StructureDefinition/us-core-location"]},"identifier":[{"system":"https://github.com/synthetichealth/synthea","value":"cfb48cb5-1b3b-371f-a47b-fc320c3c4b8a"}],"status":"active","name":"CARING HEALTH CENTER, INC","telecom":[{"system":"phone","value":"4136931007"}],"address":{"line":["1049 MAIN STREET"],"city":"SPRINGFIELD","state":"MA","postalCode":"011032114","country":"US"},"position":{"longitude":-72.58470990760483,"latitude":42.09977055},"managingOrganization":{"identifier":{"system":"https://github.com/synthetichealth/synthea","value":"0e9d0119-1157-35a0-8bb5-7e0aa3041928"},"display":"CARING HEALTH CENTER, INC"}}
{"resourceType":"Location","id":"4d464899-3a7b-3231-ac23-92242c400c5c","meta":{"profile":["http://hl7.org/fhir/us/core/StructureDefinition/us-core-location"]},"identifier":[{"system":"https://github.com/synthetichealth/synthea","value":"4d464899-3a7b-3231-ac23-92242c400c5c"}],"status":"active","name":"CARDIGAN NURSING & REHABILITATION CENTER","telecom":[{"system":"phone","value":"7815459477"}],"address":{"line":["59 COUNTRY WAY"],"city":"SCITUATE","state":"MA","postalCode":"020663746","country":"US"},"position":{"longitude":-70.74862935148246,"latitude":42.1806871},"managingOrganization":{"identifier":{"system":"https://github.com/synthetichealth/synthea","value":"76b7dbb5-0a02-32a4-9a01-3511f7e45016"},"display":"CARDIGAN NURSING & REHABILITATION CENTER"}}
{"resourceType":"Location","id":"043397eb-162b-33df-91f6-2591d1ad60b1","meta":{"profile":["http://hl7.org/fhir/us/core/StructureDefinition/us-core-location"]},"identifier":[{"system":"https://github.com/synthetichealth/synthea","value":"043397eb-162b-33df-91f6-2591d1ad60b1"}],"status":"active","name":"GREATER LAWRENCE FAMILY HEALTH CENTER INC","telecom":[{"system":"phone","value":"9786860090"}],"address":{"line":["755 MAIN ST"],"city":"HAVERHILL","state":"MA","postalCode":"018302166","country":"US"},"position":{"longitude":-71.0878121,"latitude":42.797835},"managingOrganization":{"identifier":{"system":"https://github.com/synthetichealth/synthea","value":"83a08dcf-7ed6-3d2e-afc0-a72c05d2563c"},"display":"GREATER LAWRENCE FAMILY HEALTH CENTER INC"}}
{"resourceType":"Location","id":"1e4f6f6e-f4c7-343c-9148-4b6fd5771b97","meta":{"profile":["http://hl7.org/fhir/us/core/StructureDefinition/us-core-location"]},"identifier":[{"system":"https://github.com/synthetichealth/synthea","value":"1e4f6f6e-f4c7-343c-9148-4b6fd5771b97"}],"status":"active","name":"A&A HEALTHCARE LLC","telecom":[{"system":"phone","value":"5082414877"}],"address":{"line":["138 S MAIN ST STE 14"],"city":"MILFORD","state":"MA","postalCode":"017573272","country":"US"},"position":{"longitude":-71.51639128815474,"latitude":42.1270746},"managingOrganization":{"identifier":{"system":"https://github.com/synthetichealth/synthea","value":"25c85bcc-7e25-36bc-89e8-08e0d473db23"},"display":"A&A HEALTHCARE LLC"}}
{"resourceType":"Location","id":"29ef8e36-3700-39ff-93a7-33af6d951536","meta":{"profile":["http://hl7.org/fhir/us/core/StructureDefinition/us-core-location"]},"identifier":[{"system":"https://github.com/synthetichealth/synthea","value":"29ef8e36-3700-39ff-93a7-33af6d951536"}],"status":"active","name":"WORCESTER INTERNAL MEDICINE, INC.","telecom":[{"system":"phone","value":"5087561808"}],"address":{"line":["405 GROVE ST"],"city":"WORCESTER","state":"MA","postalCode":"016041086","country":"US"},"position":{"longitude":-71.80791697272812,"latitude":42.28737115},"managingOrganization":{"identifier":{"system":"https://github.com/synthetichealth/synthea","value":"671a8184-bf6f-3ec2-b307-3ff70e604912"},"display":"WORCESTER INTERNAL MEDICINE, INC."}}
{"resourceType":"Location","id":"44a084b6-8342-3ce2-92b7-026cfcba9227","meta":{"profile":["http://hl7.org/fhir/us/core/StructureDefinition/us-core-location"]},"identifier":[{"system":"https://github.com/synthetichealth/synthea","value":"44a084b6-8342-3ce2-92b7-026cfcba9227"}],"status":"active","name":"SERENITY HILL NURSING CENTER","telecom":[{"system":"phone","value":"5083843400"}],"address":{"line":["655 DEDHAM ST"],"city":"WRENTHAM","state":"MA","postalCode":"020931135","country":"US"},"position":{"longitude":-71.30689224201797,"latitude":42.084901},"managingOrganization":{"identifier":{"system":"https://github.com/synthetichealth/synthea","value":"d9b71ccf-6649-3555-9e99-44eac0af257f"},"display":"SERENITY HILL NURSING CENTER"}}
{"resourceType":"Location","id":"f10e2877-98fb-3af1-a88b-9f747c80436b","meta":{"profile":["http://hl7.org/fhir/us/core/StructureDefinition/us-core-location"]},"identifier":[{"system":"https://github.com/synthetichealth/synthea","value":"f10e2877-98fb-3af1-a88b-9f747c80436b"}],"status":"active","name":"RHEUMATOLOGY AND INTERNAL MEDICINE ASSOCIATES PC","telecom":[{"system":"phone","value":"9786641606"}],"address":{"line":["64 CONCORD STREET"],"city":"WILMINGTON","state":"MA","postalCode":"018872179","country":"US"},"position":{"longitude":-71.13772203658047,"latitude":42.55962465},"managingOrganization":{"identifier":{"system":"https://github.com/synthetichealth/synthea","value":"411f14a5-de79-3e08-81d6-301270cc2275"},"display":"RHEUMATOLOGY AND INTERNAL MEDICINE ASSOCIATES PC"}}
{"resourceType":"Location","id":"99f1db00-66a5-3bc4-80d4-adfd9a14cf70","meta":{"profile":["http://hl7.org/fhir/us/core/StructureDefinition/us-core-location"]},"identifier":[{"system":"https://github.com/synthetichealth/synthea","value":"99f1db00-66a5-3bc4-80d4-adfd9a14cf70"}],"status":"active","name":"URGENT CARE PHYSICIANS PC","telecom":[{"system":"phone","value":"4137839114"}],"address":{"line":["1515 ALLEN ST"],"city":"SPRINGFIELD","state":"MA","postalCode":"011181803","country":"US"},"position":{"longitude":-72.50943136142334,"latitude":42.095299499999996},"managingOrganization":{"identifier":{"system":"https://github.com/synthetichealth/synthea","value":"7dcab1ad-0e13-3700-9eb0-70767c5e2b55"},"display":"URGENT CARE PHYSICIANS PC"}}
{"resourceType":"Location","id":"8c275785-baac-3416-ad7d-d6818d747d95","meta":{"profile":["http://hl7.org/fhir/us/core/StructureDefinition/us-core-location"]},"identifier":[{"system":"https://github.com/synthetichealth/synthea","value":"8c275785-baac-3416-ad7d-d6818d747d95"}],"status":"active","name":"UMASS MEMORIAL HEALTHALLIANCE CLINTON HOSPITAL INC","telecom":[{"system":"phone","value":"9783683000"}],"address":{"line":["201 HIGHLAND ST"],"city":"CLINTON","state":"MA","postalCode":"015101037","country":"US"},"position":{"longitude":-71.69329092351188,"latitude":42.42738865},"managingOrganization":{"identifier":{"system":"https://github.com/synthetichealth/synthea","value":"62b55e5b-b58f-354d-8f2d-f2a330bc619e"},"display":"UMASS MEMORIAL HEALTHALLIANCE CLINTON HOSPITAL INC"}}
{"resourceType":"Location","id":"1ee8e7a8-0749-3cd4-a7aa-be177e3b5639","meta":{"profile":["http://hl7.org/fhir/us/core/StructureDefinition/us-core-location"]},"identifier":[{"system":"https://github.com/synthetichealth/synthea","value":"1ee8e7a8-0749-3cd4-a7aa-be177e3b5639"}],"status":"active","name":"MILFORD REGIONAL MEDICAL CENTER","telecom":[{"system":"phone","value":"5084731190"}],"address":{"line":["14 PROSPECT STREET"],"city":"UPTON","state":"MA","postalCode":"015681431","country":"US"},"position":{"longitude":-71.59409308099494,"latitude":42.1700209025178},"managingOrganization":{"identifier":{"system":"https://github.com/synthetichealth/synthea","value":"845fbd9b-2d1c-39a8-8261-28ae40e4fab2"},"display":"MILFORD REGIONAL MEDICAL CENTER"}}
{"resourceType":"Location","id":"16d4a255-4586-3f5a-8386-0529a0c987da","meta":{"profile":["http://hl7.org/fhir/us/core/StructureDefinition/us-core-location"]},"identifier":[{"system":"https://github.com/synthetichealth/synthea","value":"16d4a255-4586-3f5a-8386-0529a0c987da"}],"status":"active","name":"COMPASSUS - GREATER WESTERN MASSACHUSETTS","telecom":[{"system":"phone","value":"5088452379"}],"address":{"line":["19 MIDSTATE DRIVE, SUITE 130"],"city":"AUBURN","state":"MA","postalCode":"015011856","country":"US"},"position":{"longitude":-71.85604765,"latitude":42.1894693},"managingOrganization":{"identifier":{"system":"https://github.com/synthetichealth/synthea","value":"946ec45f-5c4a-361f-b158-927144864133"},"display":"COMPASSUS - GREATER WESTERN MASSACHUSETTS"}}
{"resourceType":"Location","id":"340fb698-66ad-37b5-a6d7-12214e8b5287","meta":{"profile":["http://hl7.org/fhir/us/core/StructureDefinition/us-core-location"]},"identifier":[{"system":"https://github.com/synthetichealth/synthea","value":"340fb698-66ad-37b5-a6d7-12214e8b5287"}],"status":"active","name":"MIDDLETON FAMILY MEDICINE URGENT CARE, LLC","telecom":[{"system":"phone","value":"9787742555"}],"address":{"line":["147 S MAIN ST"],"city":"MIDDLETON","state":"MA","postalCode":"019492446","country":"US"},"position":{"longitude":-71.00861442427218,"latitude":42.585787222720036},"managingOrganization":{"identifier":{"system":"https://github.com/synthetichealth/synthea","value":"9ce6072b-d039-3cde-8eaf-950211b8ae88"},"display":"MIDDLETON FAMILY MEDICINE URGENT CARE, LLC"}}
{"resourceType":"Location","id":"956c981c-5bbc-3bac-b136-d53e114cc33f","meta":{"profile":["http://hl7.org/fhir/us/core/StructureDefinition/us-core-location"]},"identifier":[{"system":"https://github.com/synthetichealth/synthea","value":"956c981c-5bbc-3bac-b136-d53e114cc33f"}],"status":"active","name":"NORTH SHORE MEDICAL CENTER INC","telecom":[{"system":"phone","value":"9787410522"}],"address":{"line":["81 HIGHLAND AVE"],"city":"SALEM","state":"MA","postalCode":"019702714","country":"US"},"position":{"longitude":-70.90516241826194,"latitude":42.5112107},"managingOrganization":{"identifier":{"system":"https://github.com/synthetichealth/synthea","value":"af8566eb-8918-3ec7-ba44-92b6a2cf8097"},"display":"NORTH SHORE MEDICAL CENTER INC"}}
{"resourceType":"Location","id":"e1d0052b-bbb5-30be-828e-ca6b49908b99","meta":{"profile":["http://hl7.org/fhir/us/core/StructureDefinition/us-core-location"]},"identifier":[{"system":"https://github.com/synthetichealth/synthea","value":"e1d0052b-bbb5-30be-828e-ca6b49908b99"}],"status":"active","name":"MEDICAL CARE OF BOSTON MANAGEMENT CORPORATION","telecom":[{"system":"phone","value":"6177540730"}],"address":{"line":["464 HILLSIDE AVE"],"city":"WEYMOUTH","state":"MA","postalCode":"021893104","country":"US"},"position":{"longitude":-70.9391625,"latitude":42.2212188},"managingOrganization":{"identifier":{"system":"https://github.com/synthetichealth/synthea","value":"0ebe55cb-ce87-31fb-bced-cfe11130b290"},"display":"MEDICAL CARE OF BOSTON MANAGEMENT CORPORATION"}}
{"resourceType":"Location","id":"4485298a-aaef-3aa4-aedf-fc01a612fd28","meta":{"profile":["http://hl7.org/fhir/us/core/StructureDefinition/us-core-location"]},"identifier":[{"system":"https://github.com/synthetichealth/synthea","value":"4485298a-aaef-3aa4-aedf-fc01a612fd28"}],"status":"active","name":"FAMILY PRACTICE GROUP PC","telecom":[{"system":"phone","value":"7816489700"}],"address":{"line":["11 WATER ST"],"city":"ARLINGTON","state":"MA","postalCode":"02476","country":"US"},"position":{"longitude":-71.15424293038585,"latitude":42.41642055},"managingOrganization":{"identifier":{"system":"https://github.com/synthetichealth/synthea","value":"69cb2157-b620-3c51-9c94-f516462d2d55"},"display":"FAMILY PRACTICE GROUP PC"}}
{"resourceType":"Location","id":"cf117c25-4eca-3432-af54-bf059141b5ea","meta":{"profile":["http://hl7.org/fhir/us/core/StructureDefinition/us-core-location"]},"identifier":[{"system":"https://github.com/synthetichealth/synthea","value":"cf117c25-4eca-3432-af54-bf059141b5ea"}],"status":"active","name":"MASS GENERAL BRIGHAM URGENT CARE LLC","telecom":[{"system":"phone","value":"6177516205"}],"address":{"line":["1285 BEACON ST"],"city":"WOBURN","state":"MA","postalCode":"018012157","country":"US"},"position":{"longitude":-71.1684508,"latitude":42.4979478},"managingOrganization":{"identifier":{"system":"https://github.com/synthetichealth/synthea","value":"a25107f7-f4f5-36fc-98e4-f3e1b5875c91"},"display":"MASS GENERAL BRIGHAM URGENT CARE LLC"}}
{"resourceType":"Location","id":"88094e3b-b602-328c-9b7a-7ae9d99246b6","meta":{"profile":["http://hl7.org/fhir/us/core/StructureDefinition/us-core-location"]},"identifier":[{"system":"https://github.com/synthetichealth/synthea","value":"88094e3b-b602-328c-9b7a-7ae9d99246b6"}],"status":"active","name":"FAIR HAVENS INC","telecom":[{"system":"phone","value":"5088677716"}],"address":{"line":["47 E MAIN ST"],"city":"WEST BROOKFIELD","state":"MA","postalCode":"015852906","country":"US"},"position":{"longitude":-72.1381676,"latitude":42.2355113},"managingOrganization":{"identifier":{"system":"https://github.com/synthetichealth/synthea","value":"4f9dd195-07b8-3a81-8b7a-58852a0e6cdf"},"display":"FAIR HAVENS INC"}}
{"resourceType":"Location","id":"973ddf2e-494a-35bf-945c-1ab0b9d2c7a5","meta":{"profile":["http://hl7.org/fhir/us/core/StructureDefinition/us-core-location"]},"identifier":[{"system":"https://github.com/synthetichealth/synthea","value":"973ddf2e-494a-35bf-945c-1ab0b9d2c7a5"}],"status":"active","name":"URGENT CARE SPECIALISTS, P.C.","telecom":[{"system":"phone","value":"4135993800"}],"address":{"line":["2040 BOSTON RD STE 5"],"city":"WILBRAHAM","state":"MA","postalCode":"010951380","country":"US"},"position":{"longitude":-72.47288272264812,"latitude":42.150295650000004},"managingOrganization":{"identifier":{"system":"https://github.com/synthetichealth/synthea","value":"3695125c-c052-3ece-898a-2a6448987ae5"},"display":"URGENT CARE SPECIALISTS, P.C."}}
{"resourceType":"Location","id":"c5abd580-26ee-37c4-a7f7-69c98a4ee69e","meta":{"profile":["http://hl7.org/fhir/us/core/StructureDefinition/us-core-location"]},"identifier":[{"system":"https://github.com/synthetichealth/synthea","value":"c5abd580-26ee-37c4-a7f7-69c98a4ee69e"}],"status":"active","name":"ENCOMPASS HEALTH BRAINTREE HOSPITAL OF BRAINTREE","telecom":[{"system":"phone","value":"7818485353"}],"address":{"line":["250 POND STREET"],"city":"FRAMINGHAM","state":"MA","postalCode":"017014592","country":"US"},"position":{"longitude":-71.4093719,"latitude":42.2838619},"managingOrganization":{"identifier":{"system":"https://github.com/synthetichealth/synthea","value":"05fcf001-ab24-3d7d-85f7-f64942d82738"},"display":"ENCOMPASS HEALTH BRAINTREE HOSPITAL OF BRAINTREE"}}
{"resourceType":"Location","id":"4a965fe6-ab2b-3740-bb4b-ce27c570e2ed","meta":{"profile":["http://hl7.org/fhir/us/core/StructureDefinition/us-core-location"]},"identifier":[{"system":"https://github.com/synthetichealth/synthea","value":"4a965fe6-ab2b-3740-bb4b-ce27c570e2ed"}],"status":"active","name":"THE SHRINERS HOSPITAL FOR CHILDREN","telecom":[{"system":"phone","value":"1617722300"}],"address":{"line":["51 BLOSSOM ST"],"city":"BOSTON","state":"MA","postalCode":"021142699","country":"US"},"position":{"longitude":-71.06643399281765,"latitude":42.36305545},"managingOrganization":{"identifier":{"system":"https://github.com/synthetichealth/synthea","value":"9adfae03-673d-365d-9052-f705098fa3e4"},"display":"THE SHRINERS HOSPITAL FOR CHILDREN"}}
{"resourceType":"Location","id":"84ca01ea-718e-3d2c-986c-7bb472b00838","meta":{"profile":["http://hl7.org/fhir/us/core/StructureDefinition/us-core-location"]},"identifier":[{"system":"https://github.com/synthetichealth/synthea","value":"84ca01ea-718e-3d2c-986c-7bb472b00838"}],"status":"active","name":"LE & CHANG FAMILY URGENT CARE PC","telecom":[{"system":"phone","value":"5086851517"}],"address":{"line":["456 PARK AVE"],"city":"WORCESTER","state":"MA","postalCode":"016101254","country":"US"},"position":{"longitude":-71.82580924803523,"latitude":42.25512735},"managingOrganization":{"identifier":{"system":"https://github.com/synthetichealth/synthea","value":"01bde980-bf89-3138-8912-7360dff33247"},"display":"LE & CHANG FAMILY URGENT CARE PC"}}
{"resourceType":"Location","id":"ea493903-a9cf-337a-972e-d216c2bf21fa","meta":{"profile":["http://hl7.org/fhir/us/core/StructureDefinition/us-core-location"]},"identifier":[{"system":"https://github.com/synthetichealth/synthea","value":"ea493903-a9cf-337a-972e-d216c2bf21fa"}],"status":"active","name":"ENCOMPASS HEALTH REHABILITATION HOSP OF NEW ENGLAN","telecom":[{"system":"phone","value":"7819355050"}],"address":{"line":["2 REHABILITATION WAY"],"city":"WOBURN","state":"MA","postalCode":"018016003","country":"US"},"position":{"longitude":-71.161925472006,"latitude":42.46352265},"managingOrganization":{"identifier":{"system":"https://github.com/synthetichealth/synthea","value":"217cb6f6-e822-3831-9d9d-ffa104971042"},"display":"ENCOMPASS HEALTH REHABILITATION HOSP OF NEW ENGLAN"}}
{"resourceType":"Location","id":"6e3d04a3-9064-33e4-b8b5-63bb468d7629","meta":{"profile":["http://hl7.org/fhir/us/core/StructureDefinition/us-core-location"]},"identifier":[{"system":"https://github.com/synthetichealth/synthea","value":"6e3d04a3-9064-33e4-b8b5-63bb468d7629"}],"status":"active","name":"UNITED MEDICAL CARE LLC","telecom":[{"system":"phone","value":"5089715500"}],"address":{"line":["28 RIVERSIDE DR STE 101"],"city":"PEMBROKE","state":"MA","postalCode":"023594947","country":"US"},"position":{"longitude":-70.77534154695786,"latitude":42.11004715},"managingOrganization":{"identifier":{"system":"https://github.com/synthetichealth/synthea","value":"4e56c7ec-99e5-3023-8e4f-95ad18a03f06"},"display":"UNITED MEDICAL CARE LLC"}}
{"resourceType":"Location","id":"16162e2e-393c-3162-8e09-a84a60d825c4","meta":{"profile":["http://hl7.org/fhir/us/core/StructureDefinition/us-core-location"]},"identifier":[{"system":"https://github.com/synthetichealth/synthea","value":"16162e2e-393c-3162-8e09-a84a60d825c4"}],"status":"active","name":"WHITLEY WELLNESS LLC","telecom":[{"system":"phone","value":"3254399799"}],"address":{"line":["8 SHIPWAY PL # C-8"],"city":"CHARLESTOWN","state":"MA","postalCode":"021294301","country":"US"},"position":{"longitude":-71.0619957,"latitude":42.3778749},"managingOrganization":{"identifier":{"system":"https://github.com/synthetichealth/synthea","value":"e2a8b444-9b8f-36ff-84c4-05ee98589482"},"display":"WHITLEY WELLNESS LLC"}}
{"resourceType":"Location","id":"3ab5e7b0-e60e-3f82-be90-0235443c8a86","meta":{"profile":["http://hl7.org/fhir/us/core/StructureDefinition/us-core-location"]},"identifier":[{"system":"https://github.com/synthetichealth/synthea","value":"3ab5e7b0-e60e-3f82-be90-0235443c8a86"}],"status":"active","name":"SOUTHCOAST HOSPITALS GROUP INC","telecom":[{"system":"phone","value":"5086793131"}],"address":{"line":["363 HIGHLAND AVE"],"city":"FALL RIVER","state":"MA","postalCode":"027203703","country":"US"},"position":{"longitude":-71.1460783680883,"latitude":41.7093779},"managingOrganization":{"identifier":{"system":"https://github.com/synthetichealth/synthea","value":"883f57b8-89c6-3dc4-b6da-047705c88623"},"display":"SOUTHCOAST HOSPITALS GROUP INC"}}
{"resourceType":"Location","id":"6935f935-a700-3981-be87-1395d4a92beb","meta":{"profile":["http://hl7.org/fhir/us/core/StructureDefinition/us-core-location"]},"identifier":[{"system":"https://github.com/synthetichealth/synthea","value":"6935f935-a700-3981-be87-1395d4a92beb"}],"status":"active","name":"VNA & HOSPICE OF GREATER MILFORD","telecom":[{"system":"phone","value":"5084730862"}],"address":{"line":["37 BIRCH STREET"],"city":"MILFORD","state":"MA","postalCode":"017575501","country":"US"},"position":{"longitude":-71.48943173357203,"latitude":42.1424349},"managingOrganization":{"identifier":{"system":"https://github.com/synthetichealth/synthea","value":"f6ba791e-fe68-3596-bef4-60751db6a60e"},"display":"VNA & HOSPICE OF GREATER MILFORD"}}
{"resourceType":"Location","id":"528cfa46-7b9c-33a4-a748-5ffcebefbe2b","meta":{"profile":["http://hl7.org/fhir/us/core/StructureDefinition/us-core-location"]},"identifier":[{"system":"https://github.com/synthetichealth/synthea","value":"528cfa46-7b9c-33a4-a748-5ffcebefbe2b"}],"status":"active","name":"LIFE CARE CENTER OF AUBURN","telecom":[{"system":"phone","value":"5088324800"}],"address":{"line":["14 MASONIC CIRCLE"],"city":"AUBURN","state":"MA","postalCode":"015011341","country":"US"},"position":{"longitude":-71.86839612499999,"latitude":42.181923125},"managingOrganization":{"identifier":{"system":"https://github.com/synthetichealth/synthea","value":"4d3ec6c2-f6aa-3d7b-adcc-e7107dac8530"},"display":"LIFE CARE CENTER OF AUBURN"}}
{"resourceType":"Location","id":"7e9f45b4-ad6c-37b9-8e42-08946eb24b12","meta":{"profile":["http://hl7.org/fhir/us/core/StructureDefinition/us-core-location"]},"identifier":[{"system":"https://github.com/synthetichealth/synthea","value":"7e9f45b4-ad6c-37b9-8e42-08946eb24b12"}],"status":"active","name":"KINDRED  HOSPICE","telecom":[{"system":"phone","value":"5086720580"}],"address":{"line":["275 MARTINE STREET, SUITE 202"],"city":"FALL RIVER","state":"MA","postalCode":"027231518","country":"US"},"position":{"longitude":-71.1220830626733,"latitude":41.68393816525316},"managingOrganization":{"identifier":{"system":"https://github.com/synthetichealth/synthea","value":"485ae27b-c5ba-3fd0-9a16-c9eea20be185"},"display":"KINDRED  HOSPICE"}}
{"resourceType":"Location","id":"cb31685c-2054-324c-a3fe-0cc6a830a9a7","meta":{"profile":["http://hl7.org/fhir/us/core/StructureDefinition/us-core-location"]},"identifier":[{"system":"https://github.com/synthetichealth/synthea","value":"cb31685c-2054-324c-a3fe-0cc6a830a9a7"}],"status":"active","name":"HUNT NURSING & REHAB CENTER","telecom":[{"system":"phone","value":"9787773740"}],"address":{"line":["90 LINDALL STREET"],"city":"DANVERS","state":"MA","postalCode":"019232125","country":"US"},"position":{"longitude":-70.94359556912616,"latitude":42.574712149999996},"managingOrganization":{"identifier":{"system":"https://github.com/synthetichealth/synthea","value":"47602b5b-f4aa-3c73-aa26-2268ccf7a83c"},"display":"HUNT NURSING & REHAB CENTER"}}
{"resourceType":"Location","id":"cb10fc5f-9370-332c-8653-a69c8f5e815d","meta":{"profile":["http://hl7.org/fhir/us/core/StructureDefinition/us-core-location"]},"identifier":[{"system":"https://github.com/synthetichealth/synthea","value":"cb10fc5f-9370-332c-8653-a69c8f5e815d"}],"status":"active","name":"SOUTH SHORE CENTER FOR WELLNESS LTD","telecom":[{"system":"phone","value":"7818788340"}],"address":{"line":["200 CORDWAINER DR"],"city":"NORWELL","state":"MA","postalCode":"020611671","country":"US"},"position":{"longitude":-70.8846291501739,"latitude":42.16352995},"managingOrganization":{"identifier":{"system":"https://github.com/synthetichealth/synthea","value":"91808f17-7583-32a3-aa55-23b131b327c7"},"display":"SOUTH SHORE CENTER FOR WELLNESS LTD"}}
{"resourceType":"Location","id":"0216a185-b3af-3e4a-b41f-b641a648e963","meta":{"profile":["http://hl7.org/fhir/us/core/StructureDefinition/us-core-location"]},"identifier":[{"system":"https://github.com/synthetichealth/synthea","value":"0216a185-b3af-3e4a-b41f-b641a648e963"}],"status":"active","name":"HEALTHY CONCEPT FAMILY PRACTICE, LLC","telecom":[{"system":"phone","value":"7742410450"}],"address":{"line":["118 MAIN ST"],"city":"STURBRIDGE","state":"MA","postalCode":"015661533","country":"US"},"position":{"longitude":-72.06606362965572,"latitude":42.0905134},"managingOrganization":{"identifier":{"system":"https://github.com/synthetichealth/synthea","value":"8d81bd8c-ad6c-37f7-95c9-75fd3de24e86"},"display":"HEALTHY CONCEPT FAMILY PRACTICE, LLC"}}
{"resourceType":"Location","id":"f3a27424-c1f9-344d-a732-ded5d43323ed","meta":{"profile":["http://hl7.org/fhir/us/core/StructureDefinition/us-core-location"]},"identifier":[{"system":"https://github.com/synthetichealth/synthea","value":"f3a27424-c1f9-344d-a732-ded5d43323ed"}],"status":"active","name":"URGENT HELP CHELMSFORD PC","telecom":[{"system":"phone","value":"9784467515"}],"address":{"line":["45 DRUM HILL RD"],"city":"CHELMSFORD","state":"MA","postalCode":"018241503","country":"US"},"position":{"longitude":-71.3615131,"latitude":42.6255635},"managingOrganization":{"identifier":{"system":"https://github.com/synthetichealth/synthea","value":"c05d73d0-b348-32ce-9fe5-13a720950f37"},"display":"URGENT HELP CHELMSFORD PC"}}
{"resourceType":"Location","id":"babb5508-b5dd-3973-8aca-e80876d2ab06","meta":{"profile":["http://hl7.org/fhir/us/core/StructureDefinition/us-core-location"]},"identifier":[{"system":"https://github.com/synthetichealth/synthea","value":"babb5508-b5dd-3973-8aca-e80876d2ab06"}],"status":"active","name":"SOUTH SHORE PRIMARY AND URGENT CARE LLC","telecom":[{"system":"phone","value":"7815610460"}],"address":{"line":["20 EAST ST"],"city":"HANOVER","state":"MA","postalCode":"023391638","country":"US"},"position":{"longitude":-70.82664947485381,"latitude":42.1278249},"managingOrganization":{"identifier":{"system":"https://github.com/synthetichealth/synthea","value":"0592d4e5-a0fb-3143-83cd-8e5a6b066a96"},"display":"SOUTH SHORE PRIMARY AND URGENT CARE LLC"}}
{"resourceType":"Location","id":"b9f87334-89ba-390b-bc03-4f075d68d873","meta":{"profile":["http://hl7.org/fhir/us/core/StructureDefinition/us-core-location"]},"identifier":[{"system":"https://github.com/synthetichealth/synthea","value":"b9f87334-89ba-390b-bc03-4f075d68d873"}],"status":"active","name":"SOUTHEAST HEALTH CARE CENTER","telecom":[{"system":"phone","value":"5082387053"}],"address":{"line":["184 LINCOLN STREET"],"city":"NORTH EASTON","state":"MA","postalCode":"023561799","country":"US"},"position":{"longitude":-71.11947646404934,"latitude":42.06665855},"managingOrganization":{"identifier":{"system":"https://github.com/synthetichealth/synthea","value":"6b9c5830-a278-38ff-887f-ccefd74cf8e8"},"display":"SOUTHEAST HEALTH CARE CENTER"}}
{"resourceType":"Location","id":"ab1eb2eb-5fe2-39b8-9c17-4f2131691379","meta":{"profile":["http://hl7.org/fhir/us/core/StructureDefinition/us-core-location"]},"identifier":[{"system":"https://github.com/synthetichealth/synthea","value":"ab1eb2eb-5fe2-39b8-9c17-4f2131691379"}],"status":"active","name":"BROCKTON HOSPITAL, INC.","telecom":[{"system":"phone","value":"5089417000"}],"address":{"line":["680 CENTRE ST"],"city":"BROCKTON","state":"MA","postalCode":"023023308","country":"US"},"position":{"longitude":-70.9910738855076,"latitude":42.0872752},"managingOrganization":{"identifier":{"system":"https://github.com/synthetichealth/synthea","value":"6aae7a31-90df-3455-ad8d-81f8cf2d21e8"},"display":"BROCKTON HOSPITAL, INC."}}
{"resourceType":"Location","id":"bb1ad573-19b8-9cd8-68fb-0e6f684df992","identifier":[{"system":"https://github.com/synthetichealth/synthea","value":"bb1ad573-19b8-9cd8-68fb-0e6f684df992"}],"status":"active","description":"Patient's Home","mode":"kind","physicalType":{"coding":[{"system":"http://terminology.hl7.org/CodeSystem/location-physical-type","code":"ho","display":"House"}]}}
